Time, Roll, Pitch, Yaw, Vx, Vy, Vz, Px, Py, Pz
0.0, -0.0708545959015518, -0.1651901639360772, 124.87502885839797, -0.04648045361556903, 0.04438581396701358, 0.10489350596937493, 7.9354817809708145, 0.16375737708379606, -0.2932411008821703
0.01, -0.09086119905095566, -0.10600999561391641, 130.1348585123049, -0.04624318975944892, 0.04429379992843167, 0.10581685368983097, 7.932596349211254, 0.16691685965842762, -0.28696569895761187
0.02, -0.11941469748329377, 0.04527625763436615, 133.84957519717705, -0.046228354603352236, 0.05331246876202522, 0.1034561675659978, 7.938446543639511, 0.1676036813658142, -0.28278830842702896
0.03, -0.06602492439017395, 0.038929001217253706, 128.53365778874027, -0.02773397797372014, 0.05623886387150063, 0.0771380450471242, 7.942079150058517, 0.1879851875887087, -0.2805186432214099
0.04, 0.0042207257101309495, 0.09326751758743658, 116.3600613422885, -0.027959512065045627, 0.05651145595072277, 0.052325939299232946, 7.9414767677468, 0.18911842959377273, -0.2792404005934861
0.05, 0.025996865500455494, -0.01406953536571827, 116.34388569467845, -0.028079767762480435, 0.05674203742069032, 0.02769593843730069, 7.941013191168531, 0.18995479889057998, -0.27860545638302087
0.06, -0.022923004976228765, 0.014013924905216345, 116.26829699711516, -0.028066746002199973, 0.05687829439692433, 0.002988473322768962, 7.940634117977662, 0.19066394762651734, -0.27851806143571806
0.07, -0.012199925922650312, 0.07053582173898247, 116.26998228787421, -0.028149016194606462, 0.0570290985962335, -0.021638468800908996, 7.940289488373984, 0.19133232993708316, -0.27887495428146386
0.08, 0.04061736430285261, 0.0777906177016691, 116.32477674225596, -0.028304806661912117, 0.05720232437429279, -0.0463765225071242, 7.939957292885233, 0.19198080087643288, -0.2796316370814941
0.09, -0.038060537281202886, 0.009427293276132141, 136.18489079286667, -0.03240346863744398, 0.054609771359283084, 0.10262654174061091, 7.939020837328312, 0.1911073657822899, -0.28260140691882607
0.1, 0.0648268858169466, 0.062481496493050716, 120.81809656498925, -0.03259035611840063, 0.054569731604638565, 0.07772470677978159, 7.938783534221975, 0.19274935661038772, -0.28152543729417995
0.11, 0.06256491411178884, 0.06098482324945264, 120.83709805717643, -0.03273259768233304, 0.05457625596850846, 0.053082177300566045, 7.93897789674603, 0.19425086863529967, -0.28076023829356994
0.12, 0.052754942922226794, 0.059687132027675664, 120.93571535298742, -0.032777143255892885, 0.054805992322677785, 0.028325964849888162, 7.938494932186899, 0.19485207683684297, -0.2802936977433335
0.13, 0.07745347471770805, 0.052578847849196725, 120.90236590250508, -0.032855082434659476, 0.05495661331054655, 0.003680519574435421, 7.9381022170366, 0.19551048915107822, -0.2801794816516442
0.14, 0.07686036689544717, 0.059504943937772815, 120.86503006825438, -0.032833478335118585, 0.05493717266958962, -0.02110492626304384, 7.937187000885084, 0.19868884405528933, -0.28155324436550505
0.15, 0.062085896517323144, 0.040390785373155824, 120.84004126727376, -0.03271269638614359, 0.0545355497910381, -0.04576313419089115, 7.935702079143663, 0.20029851727597697, -0.2823369747874064
0.16, 0.09440651594164717, 0.07262585125222888, 120.98647074895285, -0.032823495483120906, 0.05465168836548908, -0.07057406731515549, 7.9340757371317645, 0.20081733716716804, -0.28327510565440595
0.17, 0.09476432330167417, 0.08792681695117026, 120.98101669847031, -0.03300385503894637, 0.054938950915287554, -0.09523755769086134, 7.932841697921134, 0.20139557807633213, -0.2844611403295093
0.18, 0.0973081869567453, 0.08334604474863055, 120.99081386270015, -0.03318926828138684, 0.05524526406944883, -0.12010250362148897, 7.932091457517331, 0.2044935421918629, -0.2878738056120839
0.19, 0.07650545410373592, 0.06439181309542144, 15.648444540499263, 0.03269937271689695, 0.01435992710631396, -0.08430512389289435, 7.98309054724236, -0.05106046324140798, -0.21306364263093683
0.2, 0.13870718178969665, 0.08108904586051126, 23.779373401415082, 0.03292364481359937, 0.014551836053554649, -0.10914802781422582, 7.983638851018523, -0.05037380204854417, -0.21448834048125873
0.21, 0.15539617981344478, 0.08011323516461274, 23.870298047010333, 0.03315466595585771, 0.014734554820514728, -0.1340616927953731, 7.984135819708935, -0.04993860595027869, -0.21619114583115662
0.22, 0.14588558628829054, 0.09638438669367497, 23.93334454632898, 0.03337982479075748, 0.014781641631286643, -0.15889802669611824, 7.984598461467791, -0.049451055523452345, -0.2181844238450237
0.23, 0.13112301559995304, 0.09565106863202151, 23.846791683676464, 0.03360903849008824, 0.014810103996248521, -0.18372612099357322, 7.985119222505179, -0.049035024548578464, -0.22046633898866058
0.24, 0.12565586737205958, 0.08327008262141515, 23.762029946333335, 0.03368142972124274, 0.01494791533099629, -0.20860694457082676, 7.985942672516769, -0.0488194991655439, -0.22303630136571986
0.25, 0.10748249983758992, 0.0743080833686592, 23.88602696316881, 0.03379479277323352, 0.015018994902651066, -0.23341314157575724, 7.986473209247032, -0.04855821260586573, -0.22590189255775434
0.26, 0.09785180108228152, 0.07353979442595361, 23.932876266097722, 0.03393844525123807, 0.015062250718783749, -0.25830286851943474, 7.986943287449225, -0.04831658173686878, -0.22905782903417948
0.27, 0.09135789868255706, 0.06642044067270467, 23.909621630735167, 0.03408909356771458, 0.015098380334495348, -0.2831100765329707, 7.987393333882119, -0.04809925586454759, -0.23249523102257316
0.28, 0.07522872840431187, 0.09337651695420103, 23.84883946342499, 0.03427637775901088, 0.015136250676797117, -0.3079977495786691, 7.987827249768105, -0.04789841786988951, -0.23621837599666007
0.29, 0.11926503715973708, 0.08268424847318882, -172.51520826010608, 0.010675226156486688, 0.004537121754889465, 0.08994264131143748, 8.026109710882775, -0.04936141502003739, -0.21737664475255128
0.3, 0.047322827767952914, 0.09294879792303963, 23.754756396653413, 0.01048572624496118, 0.00461323251613731, 0.06640903067361839, 8.026239363141087, -0.04930873139793967, -0.21650058554150853
0.31, 0.06459897937722944, 0.08675628048997223, 23.845425467902484, 0.0106712846969161, 0.004718444939685104, 0.04005766117319632, 8.026367229562537, -0.049255474737130704, -0.21600106702420352
0.32, 0.04234878945802547, 0.07655360776986601, 23.693001440333713, 0.010870875011779727, 0.004764276963878088, 0.01503216620351838, 8.02649780112887, -0.049204594718094886, -0.21566100867459895
0.33, 0.013203379952506393, 0.06174873715021784, 23.46931262591308, 0.011051472594360049, 0.004795704813603156, -0.009871421203720018, 8.026628411850286, -0.04915035572782999, -0.21577909318310268
0.34, 0.034852331733499685, 0.059143640428739555, 23.56558448818337, 0.01119058607052456, 0.0048797570244113065, -0.03480970927849476, 8.026760292673085, -0.0490944638175681, -0.21619339183694875
0.35, 0.0524669611757472, 0.06150216795146884, 23.64235639970262, 0.011325525627799904, 0.004959804625783231, -0.05962754897160166, 8.026893845294143, -0.049036218578075365, -0.21690459397386483
0.36, 0.04055721680451471, 0.04503271819496389, 23.56040653686262, 0.011462125167514284, 0.005001664951299299, -0.08445180740956913, 8.027029782341392, -0.04897494389885123, -0.21791296828622914
0.37, 0.020514257686877663, 0.04149580176256431, 23.441430141641586, 0.011579065361203043, 0.005026895504078883, -0.10934778723503631, 8.027169053393765, -0.04890859452459016, -0.2192301824844993
0.38, 0.0317388221944693, 0.058241532809331815, 23.510795326464002, 0.011697051826719687, 0.005099781454241272, -0.13415393872706546, 8.027313734328787, -0.048834274804233135, -0.22084643894718312
0.39, 0.0389793461015521, 0.06482610433713067, 96.24268116742994, 0.009098449167745243, 0.017507146694010538, 0.08370167542215834, 8.031588989213185, -0.06184215064122063, -0.22098181341350728
0.4, 0.03929116963688621, 0.037150025433112174, 62.750138877402954, 0.009088010679864008, 0.017628209480084134, 0.05842508530088018, 8.031681418719668, -0.061658439078162396, -0.22028881041901544
0.41, 0.05128337868676691, 0.040816473909766886, 62.757599472487925, 0.009129264691474669, 0.017722283925344563, 0.03352015383809038, 8.031775064820785, -0.06146967112911177, -0.21988368312371956
0.42, 0.037278091421996215, 0.047880047842171376, 62.68141526965614, 0.009206495420985845, 0.017821304200884937, 0.008725033960203278, 8.031876563394945, -0.06127021580802071, -0.21977528790987266
0.43, 0.02928137415106501, 0.039485978912209174, 62.63792826482633, 0.009270852300983288, 0.017922594834654453, -0.01617848662804045, 8.031990713246955, -0.06105868292184493, -0.21996261552636137
0.44, 0.031245832629449438, 0.06049267122893624, 62.64228928931906, 0.009331907986756479, 0.0180558694374591, -0.04095830366575641, 8.032116028375428, -0.06084012807872003, -0.22043156799800157
0.45, 0.022657029105113573, 0.05805956873397314, 62.62649528595885, 0.009406793362799837, 0.018198994312302434, -0.06586482410309771, 8.032251696728824, -0.06061871779494978, -0.2211864106047711
0.46, 0.03387807110833566, 0.053616206551102566, 62.69318226937304, 0.009456123434414938, 0.01835654116827316, -0.09063414541957225, 8.032391559519029, -0.0603992613549357, -0.22221939885742326
0.47, -0.0020599172793955537, 0.07559738402383015, 62.60881637647462, 0.009561633050533999, 0.01850287503766086, -0.11556236070660364, 8.032534238278231, -0.060183810927776075, -0.22354108406108647
0.48, 0.01057338791849009, 0.07970438670855827, 62.70181904249642, 0.009627745562725392, 0.0187118039358354, -0.1403291428020532, 8.03267526030831, -0.059972550556651925, -0.22514460633133931
0.49, 0.028523939369500494, 0.05475630971517078, -32.043842540833595, 0.020445639382040325, 0.004536873585845355, -0.08259118783314306, 8.055697588273901, -0.06206492779371373, -0.22650874971128526
0.5, 0.04460545903013005, 0.071158227477401, 12.210729277119459, 0.020585399903730563, 0.004471917501024112, -0.1074128897309454, 8.055958352983833, -0.06202344607785856, -0.22774005456991794
0.51, 0.011928488614465315, 0.08220315658351045, 12.134080573592342, 0.020761648853367627, 0.00447745800909571, -0.1328015890464228, 8.056219108635716, -0.061988024985616, -0.22926531502670194
0.52, 0.0062368326075032815, 0.06897384982244197, 12.139659285018674, 0.02093886780510151, 0.004518555466343883, -0.15776594270606628, 8.05647989714372, -0.061960247469630414, -0.23110981762070154
0.53, 0.008342309394019757, 0.057500232587114855, 12.17377003341292, 0.021074122985795654, 0.004564147055512824, -0.18265592307066614, 8.05673969856767, -0.06193569519442472, -0.23322207857464536
0.54, 0.002973237373742922, 0.058569052427368616, 12.192445363684811, 0.021203072054134468, 0.004600377647890528, -0.20767099265814756, 8.05700010032116, -0.06191750809142448, -0.23563258679587923
0.55, 0.018375871921486195, 0.0542220521268104, 12.281845097788633, 0.021321114953762803, 0.004664313738964994, -0.23255290337646672, 8.057262667709532, -0.061904345259595865, -0.23833340787189977
0.56, -0.009485067535785327, 0.05067142907166582, 12.239384026569393, 0.02144452032719263, 0.004676966646112037, -0.25757580463189006, 8.057529081899059, -0.06189797419724244, -0.24133181163377287
0.57, -0.013588608995855476, 0.04321468175256024, 12.27935420523924, 0.021548550940694456, 0.004718690927683858, -0.28245730487741605, 8.057800220136315, -0.061897208002798895, -0.2446206769059688
0.58, 0.01594228310402313, 0.02463470325394967, 12.43806161680971, 0.021615263781810935, 0.004798067076245128, -0.3074805382593598, 8.05807633655684, -0.0619028763455027, -0.24820684412362465
0.59, 0.009863446951073865, 0.05679053599698719, 78.24125922753821, 0.02199646725619377, 0.013829619817437288, 0.12711949319102206, 8.061786212367746, -0.057277232440718945, -0.22506370141704712
0.6, 0.01304115252593774, 0.012699339874307256, 32.31098888500552, 0.02201012585746437, 0.013907703637838482, 0.10162838946196592, 8.06205461738952, -0.05708936264320413, -0.22388725868070014
0.61, 0.012498403828445788, 0.005759207949548272, 32.27576654980173, 0.022042262393231014, 0.013914990643152552, 0.07668707228216923, 8.062325329842285, -0.056902004529461724, -0.2229700820299809
0.62, 0.019016355029057425, 0.0056092366788013555, 32.27015308724569, 0.022064065008502113, 0.01392669745212027, 0.05182050258166142, 8.062598932504956, -0.05671902846278242, -0.2223395381639955
0.63, 0.010359971944906655, 0.01785333795817846, 32.226185887065284, 0.022106385191935925, 0.013932156362623089, 0.026878033793400032, 8.06287591251503, -0.056541820066649484, -0.22200490805707201
0.64, 0.013679161946292099, 0.026486105836468866, 32.2187135037175, 0.022162172572732772, 0.013966180759053697, 0.002032061226123132, 8.063156334353957, -0.05636986722035768, -0.22196374412591185
0.65, 0.0033209345675004436, 0.013623969531933768, 32.17996290718484, 0.022219085334458256, 0.013984070183485802, -0.022927963837762078, 8.063440554771807, -0.056205294225865995, -0.2222251716645277
0.66, 0.011962653034122616, 0.0037344386955227953, 32.19828415175206, 0.022242537552491996, 0.014012503667566673, -0.0477760807536146, 8.063728094878893, -0.0560478567600338, -0.222783898014233
0.67, -0.0021991030753930824, -0.016629474601244358, 32.161976832884946, 0.022247123683867182, 0.014000058215228659, -0.07273729250421782, 8.064019458324807, -0.05590045595241236, -0.22364806519403765
0.68, 0.01151995030276335, -0.026844731715034164, 32.20900483884591, 0.02220388479233398, 0.01400314010289245, -0.09757540629136395, 8.06431417789495, -0.0557622005706329, -0.22480920983968497
0.69, 0.010496963730626219, 0.004692669683619427, -149.73902113350994, 0.015498504582360916, 0.0076868501489975325, 0.047328078285266126, 8.065890264113744, -0.033709697436561395, -0.19022009420165933
0.7, 0.008698197392468186, -0.027046581857101615, 26.368664558527232, 0.015492697825417104, 0.007668144829073224, 0.02446439984933207, 8.066072111782752, -0.03358106226507049, -0.1898255589969517
0.71, -0.007150875332742424, -0.032406156313056045, 26.253333960506176, 0.015452517832057469, 0.007617206337661965, -0.0009892291980745005, 8.066266921950863, -0.0334834438694622, -0.18982058576253066
0.72, -0.009108189530460945, -0.03633282006848956, 26.220294876736617, 0.015393218491039987, 0.007585139402962857, -0.026021918341748603, 8.066468384207559, -0.03339954727371682, -0.19015053563903273
0.73, -0.023111941755685504, -0.04133791699429863, 26.159224672649973, 0.01533080396566965, 0.007538329918647204, -0.050944922042538955, 8.066672720406658, -0.033319470686008136, -0.19076042978657476
0.74, -0.018935607152866112, -0.04737451937017833, 26.186056487246333, 0.015242958647878533, 0.007511577991059286, -0.0758466172203858, 8.066883242519078, -0.03324579917877499, -0.1916727129509071
0.75, -0.04245763701456143, -0.038718090718421305, 26.11781616308101, 0.015174147210458986, 0.007465997587802096, -0.1008047601382392, 8.067103713727093, -0.033179207563298896, -0.19289957521219858
0.76, -0.03303445922950948, -0.05427037117196198, 26.22088119718339, 0.01507344804904093, 0.007461045639445404, -0.12568369667551788, 8.067333695196034, -0.03311602230804551, -0.19443155975571014
0.77, -0.025220316576836595, -0.05445600653513945, 26.351796728462663, 0.01495833860524758, 0.007461327809907782, -0.15065185978618012, 8.067574970816677, -0.03305489680374337, -0.19627310875482307
0.78, -0.020450639215720656, -0.05165626828860657, 26.514100075891623, 0.01484161703466617, 0.007470783116059293, -0.17552693481939038, 8.067825577555082, -0.03299225045586492, -0.19841575632074787
0.79, -0.018580170793122824, -0.042623998436363136, -129.32231542935412, -0.008595181767469444, -0.017246785754137378, -0.12467650102819369, 8.087246391692478, -0.03225620254519838, -0.20080264999887787
0.8, 0.012313045459489412, -0.07510214366801676, -116.30004597749101, -0.008500296793383955, -0.01710342129707947, -0.15005353115652437, 8.087190496630635, -0.032492861525814765, -0.202642249849975
0.81, 0.004477494500174712, -0.06718978466438767, -116.46235441244502, -0.00846158810926107, -0.01688351325442047, -0.1750316239914383, 8.08713749021272, -0.03272089264490969, -0.20479410413030386
0.820000000000001, -0.03406763582579852, -0.06353555237869851, -116.77288715891468, -0.008461593262035383, -0.016651146163657846, -0.19991225573002025, 8.087077246159701, -0.03293871384678422, -0.20721593551288522
0.830000000000001, -0.017152374067031857, -0.06906132487180845, -116.87990644454243, -0.008401196883900472, -0.01644277161829388, -0.22492445040009498, 8.087013102665132, -0.03314749001086667, -0.20995213410221922
0.840000000000001, -0.0030758916611428712, -0.07778541703307872, -117.01582478580278, -0.008333812876413424, -0.01620954018245774, -0.24979518850975405, 8.086943087372013, -0.03334795951491816, -0.21299816822456838
0.850000000000001, -0.008424346404855315, -0.0716407164060817, -117.2395674356637, -0.008289996989361073, -0.015958279295975826, -0.2748120131548304, 8.086867417035847, -0.03354071207889877, -0.21636861776782293
0.860000000000001, -0.013844286702232039, -0.0706696296332236, -117.48052106949434, -0.00824728672957078, -0.015703694429803555, -0.29965595947916196, 8.086786019678712, -0.03372758264623707, -0.22005542600932188
0.870000000000001, -0.01798402187071184, -0.07744894041425616, -117.7339625163692, -0.008201710661015986, -0.015435570431401258, -0.3246693321382463, 8.086700043381805, -0.03390965629741159, -0.22407315248829296
0.880000000000001, -0.022202330024242573, -0.07577413286063776, -118.00851600565171, -0.008150979977981745, -0.015150625631761354, -0.34947847958865225, 8.086609943541719, -0.03408928519710374, -0.228408977346961
0.890000000000001, -0.010814947168221524, -0.07202696930599202, -162.47748126921056, -0.03134096114681685, -0.023579293698586332, -0.15694925620745417, 8.06883693878585, -0.03874579873220932, -0.20932100606816315
0.900000000000001, -0.026287566703782163, -0.056486369539110945, -143.01145200119942, -0.0312328867349794, -0.023444826423145534, -0.18208802734826968, 8.068422328932382, -0.03904595449020827, -0.21159796698599026
0.910000000000001, -0.02523958141533159, -0.06119380874177508, -143.10603910716935, -0.031146069302167713, -0.023284702913877426, -0.20711492440006601, 8.068004240864598, -0.03934834114404886, -0.2142010020037731
0.920000000000001, -0.034751224091633705, -0.06149322133005151, -143.23483234508993, -0.03106154419951411, -0.023094205887321563, -0.23187454780997854, 8.06758274302587, -0.039655024313458895, -0.21712551446090314
0.930000000000001, -0.03382325391649976, -0.06282412873409352, -143.36967673918733, -0.030972350738489487, -0.022892610630255477, -0.256917544310936, 8.067157793747942, -0.03996933357741283, -0.2203901878924457
0.940000000000001, -0.024296998431543673, -0.05991914956995307, -143.51086968049424, -0.03087508913175673, -0.02268392088868359, -0.28164353826457833, 8.06672932262425, -0.040293175383438566, -0.22396604337499668
0.950000000000001, -0.03470206957794764, -0.06592533239309675, -143.71710912959043, -0.030794790612489728, -0.02243091994975184, -0.3067111299302453, 8.066296664032167, -0.04062904147843026, -0.22787367266386008
0.960000000000001, -0.034325380772307915, -0.06347173835436318, -143.9277590844797, -0.030699102620706235, -0.02217104106475626, -0.3313636360088591, 8.065860278220754, -0.04097490488969196, -0.23207756087089645
0.970000000000001, -0.021276642093175972, -0.0708258908879963, -144.14163576333667, -0.03059484846627077, -0.02190146610709564, -0.35643787121112386, 8.065420049497256, -0.04133115710381603, -0.23660617666108752
0.980000000000001, -0.02234689557116805, -0.07896466052464533, -144.40263811166665, -0.030477765842697655, -0.02159677814832943, -0.38098818839459225, 8.064977295707795, -0.04169052148249172, -0.2414203756393452
0.990000000000001, -0.028421961150832915, -0.0645637760681088, -13.071100514540264, 0.03772237880016828, -0.03540959436249935, 0.22456584966519033, 8.070160329101066, -0.03558065377658485, -0.22380903286100495
1.0, -0.027144546553865605, -0.07723846258728463, -43.255683733700494, 0.037610407305450816, -0.035488019536104774, 0.20082820913789157, 8.070699665287597, -0.035989040593114086, -0.22120992132942582
1.01, -0.03195078932650385, -0.06961657211183239, -43.342066935798464, 0.037496229328887916, -0.035486674658628835, 0.1759111883945925, 8.071236925763493, -0.0364106446461581, -0.21895057428752507
1.02, -0.03902085245255812, -0.078992842731501, -43.430760893308694, 0.03737477255500487, -0.035468063827866485, 0.15100460217406717, 8.071772413710066, -0.036840927870877, -0.21699480578203878
1.03, -0.03547342525785502, -0.07926263327833868, -43.494765770703104, 0.03725657988436503, -0.03541909521486527, 0.12602449716051098, 8.072305716332448, -0.037278813208951, -0.2153552770412196
1.04, -0.05030951882699232, -0.08339939352892439, -43.570736082629246, 0.0371182386527482, -0.03537125990032512, 0.10112727351342769, 8.072836591365364, -0.03772245805537106, -0.21402739041216554
1.05, -0.060342749896772886, -0.0772739323798603, -43.632397919606554, 0.03698824256462751, -0.03530862032508478, 0.07614291534439865, 8.07336469547571, -0.03817088284154147, -0.21302254089438014
1.06, -0.06812795487381097, -0.07753302238982186, -43.677912483288786, 0.03686502995573763, -0.03523566072434324, 0.051254419208738945, 8.073890030350967, -0.03862252868451215, -0.2123367300609198
1.07, -0.06998241556212863, -0.0787455429015536, -43.706702003495906, 0.03674741076196327, -0.03514071000908024, 0.02626120935657561, 8.07441201937244, -0.03907648000371893, -0.21197959274588865
1.08, -0.06744829810268767, -0.10165652579020877, -43.71348591188081, 0.036612761451474046, -0.03500637517858692, 0.001369815180217798, 8.074930332902582, -0.039531158184951024, -0.2119428316026472
1.09, -0.049734169473946634, -0.08041382276597749, 115.8176124290537, 0.019812954627171003, -0.002866221163996617, 0.050466179130961936, 8.161365537103348, -0.047185480930770164, -0.19630188467558354
1.1, -0.0924391242038334, -0.13169273484499938, -8.664646832575652, 0.019935226889135606, -0.003058258129257971, 0.026721154286813657, 8.161651309044398, -0.04722191207231748, -0.19587420671201997
1.11, -0.08927613147594333, -0.11690657194446348, -8.714611554380856, 0.01967429954390833, -0.0030143293745608156, 0.001253410389622749, 8.16192979815324, -0.047261109438752315, -0.19583612855737315
1.12, -0.08744099245487584, -0.11674855619827253, -8.707539454149908, 0.01942819642544779, -0.002957152338995753, -0.023786582784482306, 8.162203731517648, -0.047301855574070226, -0.19616107414285835
1.13, -0.07376292694071283, -0.10976642114414811, -8.605337682749921, 0.019192628743949194, -0.002877841218736664, -0.04871336812304784, 8.162474041438392, -0.047342906704516026, -0.19678667997413538
1.14, -0.0639862945522817, -0.09796061708682793, -8.49356907212267, 0.018977511346022127, -0.002791235553052484, -0.0737783063753119, 8.162740677637565, -0.04738551732127882, -0.19775456613492517
1.15, -0.054540883577684336, -0.08107112792817264, -8.33163877871847, 0.018796903123659406, -0.0026968681255373356, -0.0987025166360403, 8.163004154987693, -0.04742994696602198, -0.1990583698404268
1.16, -0.049694359276504334, -0.07041752791703824, -8.148517467368933, 0.018645741605980332, -0.0025971360156934044, -0.12376387115288595, 8.16326511537521, -0.047477229242972596, -0.20071142474158618
1.17, -0.05121516009211366, -0.0627009288079298, -7.93630846549439, 0.0185156199121943, -0.0024934611747168883, -0.1486752036032538, 8.163523856157939, -0.04752775642867609, -0.2027050692277071
1.18, -0.0703160915011151, -0.05826760822243724, -7.746687332709755, 0.018395098993075554, -0.0023949750022200593, -0.17372620453194146, 8.163780936233309, -0.04758275383954317, -0.20504957621716124
1.19, -0.06997244717302094, -0.09393712052083489, 36.4507843852255, 0.037309599933600446, 0.012563246487128244, 0.08192224195050613, 8.212676423339238, -0.05708010770047946, -0.22518445507252788
1.2, -0.06921810080998171, -0.05440976174109388, 18.540612200627965, 0.037207522401407574, 0.012437087109692416, 0.056633473913284965, 8.213206369659876, -0.0569087704552873, -0.22441774009622598
1.21, -0.0759541404587084, -0.05192614473312239, 18.463089151535506, 0.03712293974993968, 0.012372799057471918, 0.03168576392213368, 8.213737494896694, -0.05674260884781951, -0.22400788697137733
1.22, -0.0754231536668263, -0.035802535682021436, 18.427687415462202, 0.03705856214077641, 0.012336830078859462, 0.0066364778799334655, 8.214269505888677, -0.05657951752031202, -0.22390593840134496
1.23, -0.06689577607743236, -0.0315675029127017, 18.420656916473405, 0.037014143729030974, 0.012333583907471711, -0.018269711771608636, 8.214802435573565, -0.05642021964546341, -0.22413560247902725
1.24, -0.06845329337880075, -0.026593870731070588, 18.420067929479686, 0.03698333470257507, 0.012340276817955638, -0.043321631898450515, 8.215336300588083, -0.05626494922854573, -0.22470889060469942
1.25, -0.07461323522484244, -0.031820858444969, 18.433783095112503, 0.03695499203989111, 0.01235801101817904, -0.06822104251148016, 8.21587077614019, -0.05611248787967151, -0.22561428449653015
1.26, -0.08510242529264658, -0.02690080053225457, 18.46527369448048, 0.03692847125054978, 0.012388599617825354, -0.09325720070058054, 8.216405814019714, -0.05596247424858646, -0.22686167049717176
1.27, -0.0808976713761891, -0.021272683851778055, 18.54586505066229, 0.03690928778319272, 0.012457450792043474, -0.11815549165702298, 8.216941061338884, -0.05581328961305896, -0.22844032948682105
1.28, -0.07836617751254349, -0.02072301484567321, 18.64920927950521, 0.036896604831572935, 0.012543677244683393, -0.14320293810991017, 8.217476593728556, -0.055664569976056226, -0.2303609900832818
1.29, -0.07440590834693835, -0.03344342271867175, -76.6203783002012, 0.03811838714245771, -0.023820792570955027, -0.09095087459541117, 8.238323201092715, -0.07128893696814659, -0.18776516109020888
1.3, -0.0787720929569996, -0.030110826797695684, -31.962717906404844, 0.03811573795528419, -0.02369383982469667, -0.11587604267659768, 8.238875909014787, -0.07161017086468026, -0.18931202704140634
1.31, -0.07512473254157295, -0.015264500183031432, -31.859399967202663, 0.03810846456174387, -0.023574347830361234, -0.14082700983163005, 8.239428279661876, -0.07193429070719494, -0.19125137999028494
1.32, -0.06674217851122044, -0.012010761675782017, -31.72629305673006, 0.03812057995550556, -0.023452384999785733, -0.16569933220016428, 8.239980139689374, -0.07225912521929918, -0.1935006278882957
1.33, -0.0685758111678245, -0.018810987662523513, -31.602582634769824, 0.03812306147398734, -0.023323920184688804, -0.1906678693619424, 8.24053065020004, -0.07258593551109611, -0.19611060636430724
1.34, -0.0670549930245851, -0.017513650477095643, -31.454267668474674, 0.03812244239608573, -0.023173360200109846, -0.21552669331544635, 8.241079850289115, -0.07291468694923424, -0.19907572868265416
1.35, -0.06500278035444895, -0.018610882409088807, -31.289477169754733, 0.038122817276405555, -0.023006484422111614, -0.2404771541773777, 8.241627424507376, -0.0732459503403109, -0.20240730740472904
1.36, -0.07231698294424653, -0.027507398957517293, -31.119655558365224, 0.03810542054336779, -0.022825541780012303, -0.2653173577484306, 8.242173518751333, -0.0735800479083434, -0.2060962767867008
1.37, -0.07231328478170268, -0.033082606761344655, -30.920548919160847, 0.0380791161349423, -0.022611175765028805, -0.2902598283514161, 8.2427178745024, -0.07391748627385533, -0.2101531692592191
1.38, -0.051087739230189395, -0.02229501698316347, -30.66414268312253, 0.038071737897908416, -0.022357649750237685, -0.31508292113048403, 8.24326142225456, -0.07425814584194838, -0.21456493086829825
1.39, -0.06803809214286173, -0.021688886860708145, 96.70576021358464, 0.02778674124608288, -0.0033828325404595995, 0.13790782418499936, 8.244036338398553, -0.08212938210974732, -0.23273496861886137
1.4, -0.066348020577774, -0.04433826334369192, -7.047052339471928, 0.027800619777396847, -0.0035339634243792013, 0.11396142284628477, 8.244437441146443, -0.08215793829182245, -0.23105265797713295
1.41, -0.07070510865486913, -0.04759233446047407, -7.2568158616933305, 0.027725467621096386, -0.00359466798305807, 0.08855636807481895, 8.244836486525086, -0.0821925221780374, -0.22978087447841244
1.42, -0.05948925631115698, -0.06396209796936321, -7.35975588616258, 0.027626396235755604, -0.00361000266738166, 0.06358818083401413, 8.245234130539552, -0.08223213470054258, -0.22890120468236566
1.43, -0.05934727747351901, -0.060863473865013465, -7.44426708909172, 0.027513054096981925, -0.003625284521713477, 0.038715642731400206, 8.245630322716382, -0.08227439685932735, -0.2283365744724866
1.44, -0.05654246520958001, -0.052213855643128484, -7.500270999823566, 0.027412968551134852, -0.003620552576387762, 0.013711346638317258, 8.246025257903774, -0.0823210041236194, -0.22813070935303398
1.45, -0.06357382955432182, -0.05376375077783443, -7.541484288448895, 0.02731945248947624, -0.0036122124254660934, -0.011147971156375704, 8.246418832298037, -0.08237143946732371, -0.22827125538925852
1.46, -0.055377482298446114, -0.05528243754699293, -7.512337832866791, 0.027224278651370993, -0.0035666191922233375, -0.036155181955291854, 8.246811110630384, -0.08242564765422948, -0.22876961000654192
1.47, -0.05338064605266212, -0.056030425933442124, -7.458739104807395, 0.027126426848919433, -0.0035115695553702025, -0.06102096296393705, 8.247201854715785, -0.08248285982680564, -0.22961431999873644
1.48, -0.0445808284217236, -0.06405054866147479, -7.354946842865244, 0.027017999885746092, -0.0034280819337814527, -0.08604236074978892, 8.24759109014147, -0.08254295730720203, -0.23081648171584873
1.49, -0.058072468812329435, -0.055346692677171384, -3.5216408298933195, 0.03134579874244535, -0.004392697236538213, -0.17022668227694898, 8.272091844811376, -0.09761084966636203, -0.2258209040426485
1.5, -0.03693244808035576, -0.06666807688739737, -7.94782300458158, 0.031235342265201707, -0.004224121036349607, -0.19517677972303413, 8.27254169981633, -0.09769731092688504, -0.2285558374712529
1.51, -0.04681337307279285, -0.06685388905398316, -7.723847522791108, 0.03111290334619944, -0.004065645807018622, -0.22005134903635734, 8.272991766052803, -0.09778430623696154, -0.23164021802554785
1.52, -0.04260724325021185, -0.06845559114519732, -7.436137146583302, 0.030989014359036494, -0.0038709045309956187, -0.2450760065907406, 8.273442257895566, -0.09787143788137545, -0.2350804864774682
1.53, -0.04204357486393831, -0.05762722851547123, -7.118429569380313, 0.030878086182285203, -0.003666790690681882, -0.2699592988075039, 8.27389234298648, -0.09795808505323587, -0.2388657352185018
1.54, -0.04030904635067633, -0.06179848978389071, -6.770025547992543, 0.030772343422050583, -0.003444337822390036, -0.2949805384342763, 8.274342330411077, -0.09804450414489077, -0.2430073734154948
1.55, -0.03600315436879749, -0.061332277916154795, -6.376416342683393, 0.030665013264594993, -0.0032028030428919475, -0.3198542458956377, 8.274791146899624, -0.09813017908802461, -0.24749446290829075
1.56, -0.03270150395812247, -0.0660953120444771, -5.956026713827179, 0.03055089936999416, -0.002943737953094424, -0.34486981710465975, 8.275239143946486, -0.09821555948081853, -0.2523383529482284
1.57, -0.039507072355904775, -0.058645882733254086, -5.519147155757935, 0.03044163869126289, -0.002682501574525811, -0.3697453155309967, 8.275685311536689, -0.09830050512029534, -0.2575280542712734
1.58, -0.03897215555909703, -0.059257948258108296, -5.035367154076268, 0.03033903969164309, -0.0023948071639751274, -0.39476188185689304, 8.276130427673529, -0.09838542459059336, -0.2630748811882873
1.59, -0.03884621277384011, -0.06296796251780314, 137.517136398774, 0.02286014621153557, -0.00020669977736579486, -0.055459210655032454, 8.325714626719904, -0.11153941720864835, -0.24468695531391427
1.6, -0.04628914106138957, -0.059073136633770666, -0.6824603549112298, 0.02296320027037825, -0.00024103769827990356, -0.07917545062123799, 8.326051553927302, -0.11155003529175835, -0.24571049103771897
1.61, -0.04368791702804705, -0.06745386474100123, -0.5974949597544031, 0.02284471198946732, -0.000165541840917544, -0.10450693546871367, 8.326388269148733, -0.11156646074893778, -0.24717291314244
1.62, -0.056656158000955435, -0.07128669687005723, -0.45996110234504634, 0.02271402510247203, -8.893029844386838e-05, -0.1295258602090135, 8.32672526441803, -0.11158680566328742, -0.24902783976040824
1.63, -0.06361854275496442, -0.06129624069493083, -0.24956318787925752, 0.02259312453426556, 1.0688048013406866e-05, -0.15454782455567764, 8.327061543972045, -0.11160942182888813, -0.25122407490715987
1.64, -0.05686220684286028, -0.05816824102796366, 0.04644989965231896, 0.022486890806807627, 0.0001476971047905805, -0.1795732873382081, 8.327397051126228, -0.111634838328264, -0.25378377494921545
1.65, -0.05378352896436568, -0.05011783663603535, 0.38026652296665453, 0.02239683166087687, 0.0003053436974718149, -0.20489974789552623, 8.327730787038208, -0.11166383258666134, -0.2567293750004938
1.66, -0.05211582164030591, -0.04453346120095329, 0.7801430561884233, 0.02231983538732687, 0.0004829795582577529, -0.22990660501289764, 8.32806331764859, -0.1116952948989418, -0.2600384967692878
1.67, -0.04785590322898917, -0.04332766664607705, 1.2475132642112416, 0.02225150436293341, 0.0006819406802830474, -0.2549128603726254, 8.328393598193095, -0.11172768978896967, -0.26367903803402604
1.68, -0.04436655367015338, -0.04639530245061691, 1.7614185429670786, 0.022179937526346512, 0.0009020549609365227, -0.2799260227273357, 8.328722202374223, -0.11176118367731026, -0.2676727114248567
1.69, -0.051261668793101116, -0.055736712930603116, -16.28057460023115, 0.030000342310054696, -0.00811252831371211, -0.052849551500980585, 8.305989736899315, -0.09283918993056037, -0.24639782731347393
1.7, -0.0422424270948274, -0.03107025249144398, -15.108602640734672, 0.02994826888568133, -0.008014622764802581, -0.07832481563956079, 8.306432447632448, -0.09296275745584223, -0.24753411817561918
1.71, -0.047404234615558316, -0.03457216028186975, -14.995934338066656, 0.02990854600920679, -0.007920469171121713, -0.10334671121871715, 8.30687632322595, -0.09308871057208194, -0.249031071988676
1.72, -0.047215614044730875, -0.041217806997803315, -14.832177531170963, 0.02986005660442468, -0.0078020495565173245, -0.12823236981446065, 8.307320749459985, -0.0932151934407468, -0.25085415573888553
1.73, -0.05709863706386939, -0.04135891164787646, -14.667769432781144, 0.029801250540261753, -0.007671601129399333, -0.15325986642596479, 8.307764941433676, -0.09334308112544937, -0.2530450707297995
1.74, -0.05281782239056374, -0.03928122353058721, -14.425479418374811, 0.029749991131903474, -0.007503414639463885, -0.17815656062829696, 8.308209160475656, -0.09347114544757541, -0.2555918546229018
1.75, -0.053747619419890695, -0.032498100072529054, -14.158926700672248, 0.029707199354359497, -0.007321722209737621, -0.2031964108403221, 8.308652864004937, -0.09359946503294529, -0.25850578772335725
1.76, -0.05020555470117612, -0.030869221881162087, -13.836685616174142, 0.029675317956475437, -0.007115800573847612, -0.22810351371843246, 8.309096585092197, -0.09372743351041443, -0.2617742479204539
1.77, -0.0486548610803333, -0.024260796454294558, -13.481993602741886, 0.029652560386432356, -0.0068925708821888166, -0.2531506755001315, 8.309539744443759, -0.09385541276311785, -0.2654085712622065
1.78, -0.05236578015359142, -0.028978210089136706, -13.094276307495415, 0.02962923386923657, -0.00665501466876215, -0.27805972920795385, 8.309982948568162, -0.0939832626221103, -0.26939609825738375
1.79, -0.049730512262477586, -0.03378859863075446, -21.27192364300612, 0.05284484963743641, -0.021020961965351095, -0.07019247338264309, 8.324517911299528, -0.07987552516717783, -0.24219159313584054
1.8, -0.030948636266595917, -0.016097452196045057, -21.66708606209643, 0.05285654486022002, -0.02091111340047724, -0.09509262219299974, 8.325307425079464, -0.08018371384080514, -0.24354503520952525
1.81, -0.04157630034105617, -0.018085447492903747, -21.59620187152678, 0.05286874352917756, -0.02082001415257672, -0.11996340660421201, 8.326096765895853, -0.08049451872110244, -0.24525699942060525
1.82, -0.03568694033734112, -0.014547263872931178, -21.48584774969162, 0.05289153850604894, -0.020686516765806597, -0.1449099768786601, 8.326886305379274, -0.08080824180480624, -0.24734531017986425
1.83, -0.04062709093714653, -0.012589638378303038, -21.365162671582947, 0.05291516859391986, -0.020544989270307137, -0.16977979022182046, 8.327675689675214, -0.0811247193362279, -0.24979724366008416
1.84, -0.04848069771748919, -0.01581257912275217, -21.227915902002316, 0.05293556954649653, -0.020380732114209488, -0.194739283146354, 8.328465401361752, -0.08144418302650698, -0.25261932284721583
1.85, -0.049085387903566924, -0.01837692611471784, -21.055596030364605, 0.05295313671148749, -0.020182468666309895, -0.21961679287243122, 8.329254870446798, -0.08176584099117584, -0.2558013673904107
1.86, -0.04733398621679407, -0.02479385919706578, -20.859922140827127, 0.05296159158411165, -0.019951105444213572, -0.24458982453629674, 8.330044610337886, -0.08208942598674662, -0.25935026674165823
1.87, -0.04370155542211205, -0.0227391341238365, -20.636942011531275, 0.052966842752655674, -0.019691177097794915, -0.2696418966361909, 8.33083389595142, -0.08241417501660352, -0.26326894918326005
1.88, -0.04458891379744736, -0.029340404901482906, -20.39261726236331, 0.05296431022121055, -0.01941164808659028, -0.2945678739339534, 8.331623427934675, -0.08273870190528822, -0.26754008069837704
1.89, -0.0417378302689495, -0.019153985029912998, 104.76361798441323, 0.036372672943551065, 0.012457766572786449, -0.01767039889754335, 8.358811202712824, -0.056948590071493735, -0.26617235711997655
1.9, -0.02548019040136488, -0.042226225882578176, 18.834213502861527, 0.03639245293893184, 0.012428399267643197, -0.04224560989179406, 8.359354539633872, -0.056775919088045745, -0.26673732953528817
1.91, -0.020238492193797517, -0.039389841267008646, 18.86011542838658, 0.03634469475879141, 0.012469584195583498, -0.06730073229068836, 8.359899934447492, -0.05660750636226553, -0.26773039731061243
1.92, -0.021166406805919004, -0.029878518223224314, 18.928077048818494, 0.03631278023785247, 0.012520127047648202, -0.09221533172151275, 8.360447927223078, -0.056439491966678676, -0.26905648232236806
1.93, -0.02469657294895348, -0.0260523094570466, 19.009378081329555, 0.036295242514219554, 0.012589674470694208, -0.11710636077564973, 8.36099757473668, -0.056272465190194194, -0.2707450116183857
1.94, -0.018315292633478922, -0.021129897580910818, 19.135352773434384, 0.03628463974469485, 0.012693432813045365, -0.14206008120465444, 8.361547942153154, -0.05610655810626863, -0.2728180762629522
1.95, -0.014637306841250548, -0.021773380836044416, 19.28328848041345, 0.036281352847498845, 0.01281761950041513, -0.167102843660326, 8.362098086372068, -0.05594190377303782, -0.27527946812512716
1.96, -0.021300663433600934, -0.0209672587243766, 19.438559704382477, 0.03628266027706972, 0.012946844409053663, -0.19199940703362545, 8.362647933719652, -0.055778471310111516, -0.2781141232650263
1.97, -0.01141353998188925, -0.017314462215504246, 19.649810958594962, 0.036282243115378275, 0.013118534943848247, -0.21687426150651934, 8.36319688658324, -0.05561642210688798, -0.2813201642784975
1.98, -0.00783364061418508, -0.008307101500748567, 19.87870097473363, 0.03629924864009788, 0.01331069402741082, -0.24181606491824612, 8.363745439480196, -0.05545668195557931, -0.2849147288080699
1.99, -0.017771267212359835, -0.02522176230990458, -174.9129261173632, -0.0034573816855247227, 0.006977322846771203, 0.12363286547989044, 8.3274944354976, -0.05130117926518165, -0.27851933778575744
2.0, -0.006787147869371871, -0.020293299389317766, 116.10813725674376, -0.00342566592987109, 0.006844635904181195, 0.10167808854528636, 8.327443668261688, -0.05117622927950794, -0.27679434118510193
2.01, -0.003957180019398106, -0.02936821342592361, 116.59752111351055, -0.0034119794468710366, 0.006742751534734934, 0.07287537421647278, 8.327391875325604, -0.05106349851020094, -0.2756324971598254
2.02, -0.009801992902861293, -0.020638243532292645, 116.76591048925519, -0.003391012190756965, 0.006644189715518562, 0.051045877280804564, 8.32733726413533, -0.050950288697928295, -0.2747243409700771
2.03, -0.006224593985815638, -0.024333030343604612, 117.05541098902191, -0.0036488592662074337, 0.00687650910945038, 0.019201452701059416, 8.32726008488093, -0.05083372538373454, -0.27402785585179346
2.04, 0.0010084424081751526, -0.030192324723125268, 117.99990112143426, -0.0063204002314927905, 0.007999362790743937, 0.0008614474356623009, 8.327549309541553, -0.050785940508584454, -0.2734431813084399
2.05, -0.0010839129753574875, -0.036234203605873046, 128.30895039226397, -0.008083952309975296, 0.008067023618466935, -0.02766386513533785, 8.327032523608409, -0.050499820127429915, -0.2743258561122638
2.06, -0.007663019697717194, -0.024803861403621202, 134.9869907193045, -0.00958060924848857, 0.008171264171474011, -0.044776262469615316, 8.329335136527614, -0.05047622660499459, -0.2744584821744754
2.07, -0.011574230271158061, -0.023986705439418755, 139.50838657141387, -0.011235230437095105, 0.008207366444547847, -0.0737032044318652, 8.32862435897507, -0.05033791587107915, -0.2760170703086946
2.08, -0.005813472931783523, -0.02318446724626927, 143.8421095209587, -0.013198263032763611, 0.008360632885651371, -0.08618694661354681, 8.33161235702822, -0.050258197206905525, -0.27679386054829047
2.09, -0.004867881646856872, -0.025899966689473156, -67.9979052581899, 0.0274377270438282, -0.003999834563929664, 0.20490030741134818, 8.363952411534344, 0.007449027558227579, -0.27629181974492906
2.1, -0.014299426753923266, -0.01805978496983681, -8.274158602386763, 0.027366673460579756, -0.00393866816635574, 0.1839023314102988, 8.365794727856706, 0.007410715699664182, -0.2731775814253273
2.11, -0.025215725760700504, -0.017870040924967325, -8.203148939202688, 0.02593214985332145, -0.003913599277296883, 0.16178713977514306, 8.366949077647861, 0.007367290720421709, -0.2705778717681585
2.12, -0.021522049064356837, -0.017416226453042475, -8.572804311898016, 0.026138149289518107, -0.0040002729872641, 0.1369007658360932, 8.3673433047828, 0.007347732019251406, -0.2685291629961598
2.13, -0.021430978783550513, -0.02234257369496069, -8.703488076176342, 0.026176513377903984, -0.00404929656593955, 0.11187369409659809, 8.36767807793358, 0.007316696758494305, -0.2669690380126088
2.14, -0.020651473552411887, -0.015949007753694937, -8.792159918572754, 0.026186907138653473, -0.0040808909570940995, 0.08699216226961524, 8.368036343447889, 0.007274941572477445, -0.26572103924195706
2.15, -0.01932263771501534, -0.020588457791434138, -8.856291494756467, 0.026183348185982926, -0.004096781855081561, 0.0619646566098864, 8.36841322426039, 0.007224924873628755, -0.26481023293994055
2.16, -0.010722007338269519, -0.021704413237444646, -8.870488186977024, 0.026167947455290795, -0.004092106461426939, 0.03707562211768875, 8.36880259446311, 0.007169472752102122, -0.2642425050858741
2.17, -0.01321992781055806, -0.013265112741528005, -8.897429518178596, 0.026153710902026107, -0.004090276756056749, 0.012044531971942577, 8.369199099393015, 0.007109109119110462, -0.264044955714213
2.18, -0.013070737731915954, -0.024745405466432228, -8.889399526361315, 0.026130677021881075, -0.004072430596455531, -0.012844088615722313, 8.369598537888056, 0.007044761502179826, -0.2642168449399026
2.19, -0.01692625322430426, -0.01910503098590941, 70.46884930742291, 0.028220017127920213, 0.002317627254387989, -0.09818281533745826, 8.406825119006376, -0.03670402497792034, -0.19787448486435325
2.2, -0.021935906334816162, -0.02344519845067125, 4.632375934335926, 0.028205341703306557, 0.0023666106611052243, -0.12285969248556478, 8.407236882224069, -0.03669339242448466, -0.19972542133625865
2.21, -0.019104874642580948, -0.019802219126081117, 4.796256789638654, 0.028155884857791198, 0.0024775400900848847, -0.14790270905945702, 8.40763741779823, -0.0366924003588174, -0.2020298057602567
2.22, -0.01689039408580035, -0.014908685166314472, 5.027503421663881, 0.02811367119029925, 0.0026090298434038846, -0.17295586874305527, 8.4080297138959, -0.03669907137387029, -0.20470014713447782
2.23, -0.016154695907380893, -0.014237657271299619, 5.297154465117845, 0.028074928932351632, 0.002765281481160021, -0.19801486877538885, 8.408411130456376, -0.03671559154425027, -0.20775907621918127
2.24, -0.011004132691917643, -0.024958391787094907, 5.6316906839876735, 0.028018966022407922, 0.002954226481527766, -0.22308078329819475, 8.408781968656443, -0.03674223258198476, -0.2111997751793544
2.25, -0.009873045213043415, -0.025725768582519556, 6.015411454623436, 0.027949200548908662, 0.0031658872720945717, -0.2481366254220144, 8.409143095890082, -0.03677837913219107, -0.21501378486660075
2.26, -0.013413607432280272, -0.028026242769346985, 6.4454680388103744, 0.027872972670866955, 0.0033977745121155645, -0.2730435460366765, 8.409499063303064, -0.03682113749397402, -0.21918039055305283
2.27, -0.015287781787459001, -0.02491969190724563, 6.938981279779673, 0.02779718672228664, 0.003660349292358407, -0.2981083873841868, 8.409851573879997, -0.03686872221715455, -0.2237154257509896
2.28, -0.00885080631959829, -0.024657491657275623, 7.509934068520786, 0.027722636417102542, 0.00395759420932497, -0.32303120703522115, 8.410206829444396, -0.03691598490373228, -0.22860237412516918
2.29, -0.014044986791581393, -0.022298564853721437, -68.42463375857815, 0.029691100230552544, -0.03212920441288778, -0.12057494086751039, 8.388045207633773, 0.008927163099971477, -0.15849740785905508
2.29999999999999, -0.01084063800474049, -0.021325377849218553, -47.23996531927557, 0.029680780611855927, -0.03196088073263301, -0.14582912982380045, 8.388494080526927, 0.008386361931731166, -0.1607052539864908
2.30999999999999, -0.0187248164929487, -0.018824982068554548, -47.13019060724683, 0.029649100395050365, -0.031781787006736, -0.17071988302037147, 8.388943359038297, 0.007841619239201816, -0.16333120766443476
2.31999999999999, -0.013396113154484024, -0.019383546178070615, -46.97897111142603, 0.02963129003731357, -0.03157698638713645, -0.19568297022303072, 8.389395859655673, 0.007298839291819697, -0.166284385434524
2.32999999999999, -0.020979320009045885, -0.01842726934473492, -46.83210338900957, 0.029601143160638565, -0.031361264479041924, -0.2205690801587511, 8.389850191997997, 0.006756538166576644, -0.1696166526888497
2.33999999999999, -0.016545885966096446, -0.012974813584688523, -46.6459120012236, 0.029586937821908913, -0.031113566987924054, -0.24554110697287596, 8.390306319278181, 0.0062149280212593135, -0.17333514304164577
2.34999999999999, -0.022076969958084565, -0.016084138908889104, -46.448626527141734, 0.029564330437106618, -0.030853942320543882, -0.27042134586511263, 8.390764213475213, 0.00567441156439409, -0.17743060079663125
2.35999999999999, -0.030770086230176404, -0.023881918426700066, -46.23693724191748, 0.029529690319993824, -0.030559658529971494, -0.29539430435371766, 8.391223230749562, 0.005134273603765779, -0.1819109601983387
2.36999999999999, -0.032899268246260514, -0.022148410458475126, -45.984074107996236, 0.02949579611209519, -0.03023418904881518, -0.32027592100776864, 8.391683471395062, 0.004594656155584728, -0.1867661353802751
2.37999999999999, -0.03554269197579991, -0.017214733172386847, -45.71241437118962, 0.029467629340602687, -0.029886977012105267, -0.3452694882985534, 8.392144507786048, 0.004054180062788541, -0.19200580205954096
2.38999999999999, -0.021764618323032205, -0.018916984469987984, 15.261715201242826, 0.046649370239482214, -0.019548331333411842, -0.09241927301413394, 8.34134413514339, 0.040198910971460285, -0.16833730034220076
2.39999999999999, -0.03726159888389416, -0.02055218837379499, -22.774294022318387, 0.04665634779658924, -0.019465108683302347, -0.11751417404159878, 8.34208055662302, 0.03985828461503368, -0.17011694817763648
2.40999999999999, -0.03705873709553684, -0.023774496159571407, -22.646233194393364, 0.04665253711033796, -0.019317492769381626, -0.14293521685107302, 8.342820156722354, 0.039512375411225716, -0.17228656482596658
2.41999999999999, -0.040108174018674246, -0.02572659121140034, -22.496427492203924, 0.04663969513719454, -0.019140607067548544, -0.16786159283330251, 8.343562740553338, 0.03915996431357563, -0.17489473844234257
2.42999999999999, -0.03721315676272584, -0.02545912429529559, -22.30705253695659, 0.04662757519437946, -0.01894260220513862, -0.1927682626841978, 8.344307737940461, 0.038805174227856114, -0.17783748836103652
2.43999999999999, -0.04124208389375676, -0.026165573716541664, -22.11423961073242, 0.04661154885977492, -0.018723365394692687, -0.217742860584499, 8.345054832410124, 0.03844520353774814, -0.1811797743801631
2.44999999999999, -0.03541363425689181, -0.024923947632469103, -21.874531435125025, 0.046600830452988094, -0.01846729865824054, -0.2426422740696836, 8.345803362753863, 0.03808092250212435, -0.18490591462813996
2.45999999999999, -0.02828528210394103, -0.02031057754286669, -21.606500076921762, 0.046598013628617145, -0.018182344322541164, -0.2676264484041727, 8.346553868981625, 0.03771213687381392, -0.1890203731806974
2.46999999999999, -0.023312246739636912, -0.016720140304695926, -21.30650301460068, 0.04660289871433327, -0.01787759831718035, -0.2925257496419566, 8.347305700042437, 0.03733976294294884, -0.19351122222297706
2.47999999999999, -0.027330993869558208, -0.016542896434447653, -20.992584868479163, 0.04660812235045682, -0.017555529602884742, -0.3175242543870924, 8.34805963047836, 0.03696392004541139, -0.19838529726746987
2.48999999999999, -0.03337741268247872, -0.02224159030210404, -176.17409712016843, 0.003381456005707245, -0.008391548405323327, 0.16162350554644378, 8.358833696242277, 0.024732654314019574, -0.23834500178317886
2.49999999999999, -0.021982810157523115, -0.024819049064050382, -67.85921908566615, 0.0034264846012568065, -0.008529466766950329, 0.13547551347262918, 8.358887328567002, 0.024626670164548475, -0.23632666398310787
2.50999999999999, -0.025259229635003943, -0.031481565756592826, -68.15796399836368, 0.003407333268462862, -0.008607711723458464, 0.10807843537817621, 8.358939498593001, 0.024516364333455824, -0.23462138747558542
2.51999999999999, -0.025060380759947223, -0.027825155933068217, -68.41759204581282, 0.0033909848942526243, -0.00866802468573644, 0.08484605305252534, 8.358991769367226, 0.024401203787169107, -0.23326322584484988
2.52999999999999, -0.021905104580945797, -0.025873725150581187, -68.62456262852814, 0.003381485118715427, -0.008725011457415655, 0.05991687244984224, 8.359041759248022, 0.024283793179700756, -0.23215048508735797
2.53999999999999, -0.029833134042712865, -0.02512903437283747, -68.8904783942267, 0.003357061074159887, -0.008731610052731256, 0.034990665082271236, 8.359094655874184, 0.024151801481413864, -0.23158994463629382
2.54999999999999, -0.02816862459418255, -0.02557513026539278, -68.96912729471826, 0.003342777536796116, -0.008707391714839858, 0.01006686901887358, 8.359149405079902, 0.024013914717379015, -0.23141459067426512
2.55999999999999, -0.019405287365574713, -0.023424159004428874, -68.94210833350567, 0.0033369680520595768, -0.008655859933743282, -0.014859948164148956, 8.359206084867415, 0.023870694741832402, -0.23162529644412502
2.56999999999999, -0.01382652195264428, -0.03186961014798746, -68.88497751980931, 0.003323514125736223, -0.00857082117240097, -0.03977946934921916, 8.359264012048058, 0.023722781320281033, -0.23222191583607277
2.57999999999999, -0.015191277420545775, -0.03294605064252645, -68.82742903498682, 0.0032975393635097713, -0.008452904207956285, -0.06469450747719578, 8.359322177683124, 0.023570625175145146, -0.23320469634927882
2.58999999999999, -0.02190669845063771, -0.02766086489725736, 145.51373757645356, 0.0010831156352785415, -0.009447440093986108, -0.08286916072603266, 8.408280123588687, -0.040427380266777266, -0.2064706666874025
2.59999999999999, -0.015974453923420028, -0.026692138360345778, -83.23911061004569, 0.00110866316409585, -0.009388249984925873, -0.10565152153063341, 8.408302399038377, -0.04059641560252503, -0.20792474171313105
2.60999999999999, -0.014125151551505255, -0.03315995993726675, -83.26223292476489, 0.0010969847984171033, -0.009196115586806582, -0.131148792351636, 8.40832322993096, -0.040777551391323025, -0.20993468509534893
2.61999999999999, -0.008796300572224289, -0.034679408369006806, -83.1659134029451, 0.0010897124849675705, -0.00895440898402416, -0.15607679364635746, 8.408342308051642, -0.04096443040724657, -0.21239556490156725
2.62999999999999, -0.016237383416968128, -0.031778339675617565, -83.13161553906679, 0.0010656236937942399, -0.00869696169453575, -0.18099920222421254, 8.408361586057532, -0.04115131005463448, -0.21519464799899346
2.63999999999999, -0.024392298732294575, -0.028911309938345446, -83.09279731873153, 0.0010413438778928631, -0.00841871004814784, -0.20593235466284915, 8.408381381791909, -0.04133982235108895, -0.21838329344444668
2.64999999999999, -0.026660078124671038, -0.02907191847821208, -82.978672264973, 0.0010236751835912454, -0.008113895805281927, -0.23086158076173086, 8.408403184154713, -0.041528874626187415, -0.22196143208165386
2.65999999999999, -0.021513687828689475, -0.0312955045956952, -82.77533010949054, 0.0010157259416218047, -0.007778770091759728, -0.2557895926924263, 8.40842636804833, -0.04171793510738515, -0.22592992864522812
2.66999999999999, -0.016477197960922913, -0.026383417389355554, -82.52524069130253, 0.0010070900346145137, -0.007418616489702167, -0.28070821462155565, 8.408451829848719, -0.04190631025343454, -0.23028873516667622
2.67999999999999, -0.013968919428808136, -0.0235880178619402, -82.25680443922303, 0.0009974668559874986, -0.007041384877725148, -0.3056371001486033, 8.408478086740034, -0.04209413066019454, -0.23503880824184042
2.68999999999999, -0.016882686904436187, -0.029504270000678855, 49.55719549566988, 0.028363960190831063, 0.011817870112381116, 0.013928832434386529, 8.460824036254067, -0.04305961039889173, -0.2167821116832672
2.69999999999999, -0.005291195314837973, -0.02374967411236684, 22.603879537952785, 0.02835330518098748, 0.01180675214668809, -0.011235507059166308, 8.46128613741713, -0.04287364916895149, -0.2169531603566947
2.70999999999999, -0.004012119141864611, -0.022128973882180294, 22.60224505314652, 0.028344123314717373, 0.011838177806913146, -0.03613602309278406, 8.461750518523365, -0.04269443140248443, -0.21754938200439963
2.71999999999999, -0.0005302049549212749, -0.021890943550202737, 22.66838064348697, 0.028337633620867612, 0.011891319124874594, -0.06104820157153585, 8.462215672306959, -0.04251834694809479, -0.21848819310261675
2.72999999999999, 0.005250870633439253, -0.016447969166368006, 22.769754785219643, 0.028334910669342076, 0.011978175646790538, -0.08595036160984172, 8.462680815123193, -0.042347469830204786, -0.21982316333044843
2.73999999999999, -0.00150738785172442, -0.01716504506830147, 22.891720492625954, 0.028344548827001707, 0.01208199232488695, -0.110867222714316, 8.463145954151033, -0.04218185920803881, -0.22155579284820479
2.74999999999999, 0.005011221926563294, -0.013142294483538165, 23.093260781036303, 0.028350725244350058, 0.012233604693279845, -0.13578647714241593, 8.463610982010186, -0.04202102389541208, -0.2236822648733184
2.75999999999999, 0.002904967904895741, -0.00645981201975624, 23.327759286352304, 0.028374132635140156, 0.012411096067226379, -0.16072613624219304, 8.464077155097945, -0.041864379665043944, -0.22620183957174353
2.76999999999998, 0.003788251168154354, -0.007486532379490482, 23.61910913822207, 0.028400737961636342, 0.01262608813461428, -0.18565411936224346, 8.464544762897216, -0.041710996472244785, -0.2291094654145735
2.77999999999998, 0.00620754099836129, -0.006933488097866478, 23.9665054218197, 0.028427598327017942, 0.012872004279274254, -0.2105942465096477, 8.465014964920028, -0.04155950782949691, -0.2324060978402834
2.78999999999998, 0.0021015550699371595, -0.015042656803780365, 151.37135992657602, -0.04634840629395035, 0.04966774873380214, 0.1058750550975231, 8.447418225604126, -0.07704670212713563, -0.27891897880504296
2.79999999999998, 0.00727933002225284, -0.006289242233364402, 133.02113971122614, -0.04638303980147748, 0.04957129059853294, 0.08071488829997422, 8.446640008238415, -0.07619866544314216, -0.27763138201934273
2.80999999999998, 0.006214743052475279, -0.006416952069712342, 133.09003583634768, -0.04641805007404389, 0.049511811830976735, 0.05578862766102382, 8.445860783224822, -0.07535444228417484, -0.2767178429697591
2.81999999999998, 0.015811434412573117, -0.012103718844211554, 133.15745751980208, -0.046457982416375214, 0.04946850948082085, 0.03085002167898666, 8.445080426832872, -0.07451492061424313, -0.27619707070169297
2.82999999999998, 0.013733582418182047, -0.012845510155376822, 133.1944633036181, -0.04648104418931831, 0.049457499521399724, 0.005943640760284148, 8.444299635993072, -0.073679533174349, -0.2760673150320932
2.83999999999998, 0.017389601307826748, -0.006049055590062159, 133.22139127306136, -0.04651478288589793, 0.04947724679535463, -0.018988727113799626, 8.44351843874841, -0.07284805018078273, -0.27633197480840427
2.84999999999998, 0.023461972414225155, -0.011926685336885191, 133.23311828234878, -0.046549896285262356, 0.04952189618997252, -0.04389866306458905, 8.442736933421578, -0.07202026702842264, -0.27698875814044416
2.85999999999998, 0.027510225796499435, -0.008253393536920813, 133.22701756448237, -0.046582968089560695, 0.04959844052424627, -0.068836767100431, 8.441954774904914, -0.07119638091543389, -0.2780401435990159
2.86999999999998, 0.0256115245858059, -0.00109237124575328, 133.19653169254943, -0.046618618043836456, 0.04971655262303371, -0.09373955233051094, 8.441171536349252, -0.07037612139743493, -0.279482771999333
2.87999999999998, 0.021731842684794563, 0.0007153392582724913, 133.1485846177387, -0.04666015029842398, 0.04987580769493781, -0.11867472658567985, 8.440386688996954, -0.06955968935855532, -0.2813187557996407
2.88999999999998, 0.018461189054903477, -0.0071384476156999685, 132.15010270645638, -0.048385738676580595, 0.04235083439295437, 0.049502924156562905, 8.402115442228048, -0.0463198542090031, -0.25336240506300794
2.89999999999998, 0.013560705485929036, 0.002711705192673181, 138.7917350972446, -0.04842608287987899, 0.04233764781554932, 0.024637587516275004, 8.40129503134388, -0.04559436594682134, -0.25293645794811165
2.90999999999998, 0.011863101846828582, 0.002507983034170868, 138.83000303652386, -0.0484777130865233, 0.042356543910233635, -0.0002687027110108572, 8.400471074882445, -0.04487503669673537, -0.2529066723542625
2.91999999999998, 0.010630012663312767, 0.00841845260502073, 138.84840360473044, -0.048536994337291285, 0.04241087055432397, -0.025214600306027585, 8.399644246707439, -0.04416155809691664, -0.2532713641337868
2.92999999999998, 0.015914310668343683, 0.009690811178503358, 138.8537805465041, -0.048607848032689485, 0.04249139321880291, -0.05011998204978041, 8.398815191608122, -0.043453428336076926, -0.2540258390857607
2.93999999999998, 0.018783289623581, 0.010511410567906308, 138.83899218608713, -0.04868024748142178, 0.042607354583520246, -0.07506151527118991, 8.397984449145552, -0.04275049520891564, -0.25517475398459316
2.94999999999998, 0.02268111750780933, 0.013279103401222316, 138.80446194303616, -0.048756517176362466, 0.0427517455661625, -0.09994991657999303, 8.397152585037029, -0.042051938931244356, -0.2567131745976205
2.95999999999998, 0.023238336420492615, 0.0158013503217388, 138.74953648718883, -0.04883582154266681, 0.04293536581183592, -0.12489114192834676, 8.39631989515817, -0.04135751094444458, -0.25864647558595066
2.96999999999998, 0.023930082706020185, 0.006605536505305108, 138.67375036489574, -0.04890826446765207, 0.04313869375314385, -0.1497814697651772, 8.395486941234628, -0.04066636483880712, -0.2609693442193254
