Time, Roll, Pitch, Yaw, Vx, Vy, Vz, Px, Py, Pz
0.0, -0.0708545959015518, -0.1651901639360772, 124.87502885839797, -0.04648045361556903, 0.04438581396701358, 0.10489350596937493, 7.9354817809708145, 0.16375737708379606, -0.2932411008821703
0.01, -0.09086119905095566, -0.10600999561391641, 130.1348585123049, -0.04624318975944892, 0.04429379992843167, 0.10581685368983097, 7.932596349211254, 0.16691685965842762, -0.28696569895761187
0.02, -0.11941469748329377, 0.04527625763436615, 133.84957519717705, -0.046228354603352236, 0.05331246876202522, 0.1034561675659978, 7.938446543639511, 0.1676036813658142, -0.28278830842702896
0.03, -0.06602492439017395, 0.038929001217253706, 128.53365778874027, -0.02773397797372014, 0.05623886387150063, 0.0771380450471242, 7.942079150058517, 0.1879851875887087, -0.2805186432214099
0.04, 0.0042207257101309495, 0.09326751758743658, 116.3600613422885, -0.027959512065045627, 0.05651145595072277, 0.052325939299232946, 7.9414767677468, 0.18911842959377273, -0.2792404005934861
0.05, 0.025996865500455494, -0.01406953536571827, 116.34388569467845, -0.028079767762480435, 0.05674203742069032, 0.02769593843730069, 7.941013191168531, 0.18995479889057998, -0.27860545638302087
0.06, -0.022923004976228765, 0.014013924905216345, 116.26829699711516, -0.028066746002199973, 0.05687829439692433, 0.002988473322768962, 7.940634117977662, 0.19066394762651734, -0.27851806143571806
0.07, -0.012199925922650312, 0.07053582173898247, 116.26998228787421, -0.028149016194606462, 0.0570290985962335, -0.021638468800908996, 7.940289488373984, 0.19133232993708316, -0.27887495428146386
0.08, 0.04061736430285261, 0.0777906177016691, 116.32477674225596, -0.028304806661912117, 0.05720232437429279, -0.0463765225071242, 7.939957292885233, 0.19198080087643288, -0.2796316370814941
0.09, -0.03822846086580786, 0.009427293792597494, 136.18489079287335, -0.032403469391592124, 0.05460977301489444, 0.10262654173898998, 7.939020837382931, 0.19110736573812845, -0.2826014069139542
0.1, 0.06482685966004238, 0.062481497036311236, 120.8182800525827, -0.03259050431727829, 0.054569582783490306, 0.0777247082777021, 7.938783531978426, 0.1927493503283707, -0.28152543635300925
0.11, 0.06256491412666802, 0.060984823249428936, 120.8372815617413, -0.03273274827400073, 0.0545761057115187, 0.05308217878488298, 7.93897788612464, 0.1942508505448628, -0.28076023637899905
0.12, 0.05275494295173995, 0.05968713202774961, 120.93590118681635, -0.03277729377376891, 0.05480584277102238, 0.028325966358885755, 7.938494918385681, 0.1948520565867877, -0.2802936957661348
0.13, 0.07745347475156479, 0.05257884784919978, 120.90255069694015, -0.03285523302402553, 0.05495646358011619, 0.0036805210685303953, 7.9381022013212625, 0.1955104671620936, -0.28017947962477324
0.14, 0.07686036693148926, 0.059504943937768305, 120.86521447877138, -0.03283362938070329, 0.054937022918566704, -0.02110492477366748, 7.937186984354561, 0.19868881468130062, -0.281553243381121
0.15, 0.06208589655347355, 0.04039078537314484, 120.84022609709886, -0.03271284781461744, 0.05453539981844842, -0.045763132697369355, 7.935702060645027, 0.2002984863816616, -0.2823369757053378
0.16, 0.09440651598118345, 0.07262585125227647, 120.98665727177729, -0.03282364712087794, 0.05465153770669723, -0.07057406580856385, 7.934075716463931, 0.20081730663454175, -0.28327510413809825
0.17, 0.09476432334363925, 0.08792681695117563, 120.98120324292125, -0.033004007347825354, 0.054938800114384595, -0.09523755618628535, 7.932841672658094, 0.20139554609495292, -0.2844611404059441
0.18, 0.09730818700582516, 0.08334604474861647, 120.99100000777004, -0.03318942156171107, 0.05524511265765242, -0.12010250212762281, 7.932091428129434, 0.20449349743219244, -0.28787375042873486
0.19, 0.07621750234503454, 0.06439181444471245, 15.648444581635081, 0.03269926187438426, 0.014359853744342913, -0.08430512722274464, 7.983090596031362, -0.05106055341203272, -0.21306500168807516
0.2, 0.13870713690841047, 0.08108904680470777, 23.779908873053866, 0.03292343433798761, 0.014552113189827177, -0.10914802685302093, 7.983638897336609, -0.05037388755090849, -0.2144896983694544
0.21, 0.1553961797612555, 0.08011323516451785, 23.870837086784196, 0.033154451954285034, 0.014734835670221826, -0.13406169174122817, 7.984135862045642, -0.04993868527614461, -0.21619250317336003
0.22, 0.1458855862501596, 0.0963843866937593, 23.933887019815497, 0.03337960969009872, 0.014781924371821461, -0.1588980255977606, 7.984598502300317, -0.0494511302539329, -0.218185780365764
0.23, 0.13112301555839498, 0.09565106863195481, 23.84733405616583, 0.03360881076383879, 0.014810394412200271, -0.18372611990057808, 7.985119335794867, -0.04903513100324252, -0.22046768442224632
0.24, 0.12565586724460806, 0.08327008262189323, 23.76258766050221, 0.03368119502139908, 0.01494821123854503, -0.20860694331913698, 7.9859427946984605, -0.04881960330227233, -0.2230376486991764
0.25, 0.10748249969693267, 0.07430808336872807, 23.88659537455368, 0.03379455639661954, 0.015019292860408137, -0.23341314017702133, 7.9864733278105176, -0.0485583121688154, -0.225903240291538
0.26, 0.09785180094865173, 0.07353979442601422, 23.933446764612032, 0.03393820787733251, 0.015062550351682866, -0.2583028670992885, 7.98694340222217, -0.04831667695796907, -0.22905917694419783
0.27, 0.09135789855385579, 0.06642044067270822, 23.91019277934101, 0.03408885540581635, 0.015098681555970519, -0.28311007510385483, 7.987393445083921, -0.04809934689936089, -0.23249657899251733
0.28, 0.07522872828160822, 0.09337651695420887, 23.84941084393421, 0.034276138889361034, 0.015136553825183164, -0.3079977481472919, 7.9878273575615735, -0.04789850486446536, -0.23621972392792767
0.29, 0.11799637193976119, 0.08268425630229793, -172.51520814657846, 0.010675050509746455, 0.004537359354256001, 0.08994263326058871, 8.026109834388016, -0.04936146760993118, -0.21737792618869795
0.3, 0.04732262927207294, 0.09294880178371538, 23.748533417911755, 0.010485765046192764, 0.004611896034418793, 0.06640896273436231, 8.026239487748327, -0.049308799471641615, -0.21650187085207584
0.31, 0.06459897918187064, 0.08675628048695182, 23.839233725397644, 0.010671333432020135, 0.004717081851551219, 0.04005759008619663, 8.026367355006577, -0.04925555847327877, -0.21600235313382296
0.32, 0.04234878929218338, 0.07655360776983683, 23.686776405209116, 0.010870929336007463, 0.004762895813892831, 0.015032094994124258, 8.026497928134955, -0.049204692704402406, -0.21566229565918998
0.33, 0.013203379787564671, 0.06174873715034894, 23.463092210286725, 0.011051530652893077, 0.00479430378453583, -0.009871492366806654, 8.026628539544111, -0.049150470003149524, -0.21578038072146918
0.34, 0.03485233156669633, 0.05914364042872533, 23.55936629295444, 0.011190653477788692, 0.004878338992739057, -0.034809780406980226, 8.026760420342868, -0.04909459524538114, -0.21619467990703722
0.35, 0.05246696100662824, 0.06150216795139187, 23.636132917936152, 0.01132560183012765, 0.00495836784436805, -0.05962762016563198, 8.026893971406167, -0.049036368892735945, -0.21690588286651266
0.36, 0.04055721663883919, 0.045032718194818966, 23.55416233293462, 0.011462205861231157, 0.005000206055978048, -0.08445187888284665, 8.02702990398831, -0.04897511622630993, -0.21791425900132136
0.37, 0.020514257524845692, 0.04149580176200257, 23.435150935639445, 0.011579148399737657, 0.0050254109707202664, -0.10934785907639957, 8.027169164782576, -0.04890879467413131, -0.21923147775632584
0.38, 0.031738822047999, 0.058241532808994106, 23.504466557732652, 0.011697141940563276, 0.005098263888611296, -0.13415401125754195, 8.027313826170516, -0.04883451128691825, -0.22084774531265083
0.39, 0.0383363980199067, 0.06482610697020544, 96.24268016198123, 0.009098604333079727, 0.017506156888605816, 0.08370174838116523, 8.031589057137795, -0.06184269823451778, -0.2209806198593527
0.4, 0.039291069372777744, 0.0371500274955183, 62.750389225932395, 0.009087364887060499, 0.017627145197927994, 0.05842516187532948, 8.031681493360075, -0.061658991708021936, -0.220287588617943
0.41, 0.05128337862652049, 0.04081647391026721, 62.75785135216131, 0.009128611958569103, 0.017721224354963785, 0.03352023045449991, 8.031775140219308, -0.061470236773728225, -0.21988243288047685
0.42, 0.037278091375286815, 0.04788004784224216, 62.681684643484495, 0.009205844226941519, 0.017820243509556355, 0.008725110846278755, 8.031876626908339, -0.06127080165309594, -0.21977402416003886
0.43, 0.029281374116833098, 0.03948597891207045, 62.63818801852744, 0.009270201025193315, 0.01792152797855676, -0.01617840985210286, 8.031990755305987, -0.06105928348501639, -0.21996136370676622
0.44, 0.03124583262544914, 0.060492671228887296, 62.642540014297474, 0.009331253453463733, 0.018054795213626997, -0.04095822707368503, 8.032116051774102, -0.060840728002420574, -0.22043034777300877
0.45, 0.022657029120341284, 0.05805956873387806, 62.62674173563292, 0.009406130671028592, 0.018197912754585568, -0.06586474761482639, 8.032251712760079, -0.060619300308398585, -0.22118523230532725
0.46, 0.03387807114153936, 0.053616206551207024, 62.69344168155931, 0.009455447323547384, 0.018355453063927427, -0.09063406879797221, 8.032391580734647, -0.06039982010368321, -0.2222182624940934
0.47, -0.0020599172625895834, 0.07559738402417455, 62.609093148083396, 0.009560937423912879, 0.018501780799875626, -0.11556228398332397, 8.032534274379614, -0.060184345270439664, -0.22353998692559018
0.48, 0.010573387933799349, 0.07970438670885768, 62.70213893143732, 0.009627024781620936, 0.01871070253405083, -0.14032906543689544, 8.032675313658332, -0.059973066737921174, -0.2251435440214389
0.49, 0.027547565617426068, 0.054756313263287885, -32.043842494379085, 0.020447713946200367, 0.004533147243164091, -0.08259118447344418, 8.055696861064371, -0.06206576134556868, -0.22650787194577895
0.5, 0.044605306368617495, 0.0711582305976717, 12.202049567747602, 0.020588120554916732, 0.00446923681580478, -0.10741303489294292, 8.055957664101355, -0.06202430089310796, -0.22773920135467163
0.51, 0.011928489222758498, 0.08220315658300562, 12.125397884166585, 0.02076434557183397, 0.004474723816667137, -0.13280173423887795, 8.056218454276278, -0.061988904913165374, -0.22926448013133136
0.52, 0.006236833206722272, 0.06897384982259162, 12.130919481409167, 0.02094154788657454, 0.004515771416203907, -0.15776608897039457, 8.056479273596725, -0.0619611559481501, -0.23110900092963965
0.53, 0.008342309942469687, 0.05750023258603702, 12.164979917649996, 0.021076788582799925, 0.004561316832887526, -0.1826560699889586, 8.056739100643545, -0.06193663486004688, -0.23322127924535707
0.54, 0.0029732379033529724, 0.058569052426885246, 12.183599683820715, 0.021205719983148633, 0.004597499779346243, -0.20767114034101308, 8.056999522702364, -0.061918479700630615, -0.2356318055041003
0.55, 0.018375872422595287, 0.05422205212580489, 12.2729325540717, 0.021323748728879124, 0.004661387945997666, -0.23255305192150275, 8.057262105648894, -0.06190534790636455, -0.2383326463223329
0.56, -0.00948506703441067, 0.05067142907119562, 12.230412969851454, 0.021447130692281827, 0.004673991479069584, -0.25757595398721506, 8.057528531627064, -0.06189900568819914, -0.24133107320934447
0.57, -0.013588608533539971, 0.043214681751631734, 12.270316900419953, 0.021551142081528054, 0.004715668442169465, -0.2824574550967746, 8.057799679585852, -0.061898265262346236, -0.24461996660629223
0.58, 0.015942283568472007, 0.024634703253422298, 12.42894665766085, 0.021617840771281184, 0.0047950031275831246, -0.30748068956202695, 8.058075805295621, -0.06190395596220642, -0.24820616883409538
0.59, 0.00936142860810485, 0.05679053784894058, 78.24125774674117, 0.02200071502758282, 0.013829206678108694, 0.12711961016096957, 8.061783616135788, -0.057279274100962986, -0.22506019831561686
0.6, 0.013041077125911892, 0.012699341471772657, 32.306198145766395, 0.022013767715980518, 0.013907420818974387, 0.10162844150976724, 8.062052067250852, -0.05709140948147391, -0.223883744265669
0.61, 0.012498406640670017, 0.0057592079496524345, 32.27096098835376, 0.022045906495685698, 0.013914704631623349, 0.07668712417843025, 8.062322824287877, -0.056904056122649316, -0.22296655448280572
0.62, 0.019016357811181994, 0.005609236678744106, 32.26534499619116, 0.022067717768030664, 0.013926405333303896, 0.05182055444841135, 8.062596470433776, -0.05672108371093511, -0.22233600093670056
0.63, 0.010359974689060206, 0.01785333795818814, 32.22136590860373, 0.02211004451740298, 0.013931854748428688, 0.02687808554065565, 8.062873493186103, -0.056543877764165355, -0.2220013655250002
0.64, 0.013679164639368665, 0.026486105836367672, 32.21387614618873, 0.02216583982357558, 0.013965866963860004, 0.0020321127248231386, 8.063153957584626, -0.05637192647861574, -0.22196020099584984
0.65, 0.0033209372309293233, 0.013623969531882904, 32.17511026907602, 0.022222757840271966, 0.01398374212674981, -0.022927912500757375, 8.063438220803253, -0.05620735406924495, -0.22222163353222646
0.66, 0.01196265563869237, 0.003734438695387059, 32.19340756970798, 0.022246215241452445, 0.01401216238030624, -0.047776029778915916, 8.063725804441402, -0.056049916649189624, -0.22278037060204856
0.67, -0.0021991004601163377, -0.016629474601304043, 32.15708045452042, 0.0222508017143727, 0.013999702866986366, -0.07273724174541678, 8.064017212856388, -0.055902515376916755, -0.22364455504260838
0.68, 0.011519952866324925, -0.026844731715204795, 32.204076211825665, 0.022207563438016102, 0.014002772706868961, -0.09757535604471573, 8.064311979533061, -0.05576425965883222, -0.22480572323910364
0.69, 0.010188327614871418, 0.0046926706435010705, -149.73902187979562, 0.01550432630566093, 0.007686087646281599, 0.04732812725080289, 8.065886592269264, -0.033712306037196944, -0.19021390406802022
0.7, 0.008698153058792736, -0.027046580905440692, 26.356552761968228, 0.015498730424251712, 0.00766704680246341, 0.024464260861575462, 8.066068503070348, -0.033583687498998815, -0.1898193693033537
0.71, -0.007150871301542731, -0.032406156313341546, 26.241227981703567, 0.01545854597035671, 0.007616111236048091, -0.0009893682468741357, 8.066263383031943, -0.03348608153273533, -0.18981440089327564
0.72, -0.009108185530334875, -0.03633282006865536, 26.208172481543762, 0.015399244197043636, 0.007584043724640797, -0.02602205767030416, 8.066464920589913, -0.033402196762702084, -0.19014436309845528
0.73, -0.02311193784731878, -0.04133791699401062, 26.14707362748757, 0.01533682251423862, 0.0075372318397113275, -0.05094506175947967, 8.066669335103462, -0.03332213194038673, -0.19075427432329972
0.74, -0.018935603374432255, -0.047374519370175124, 26.173846202015888, 0.015248971113060603, 0.007510477721029856, -0.07584675777102284, 8.066879941626105, -0.033248470483881125, -0.1916665808558043
0.75, -0.04245763343681835, -0.03871809071788679, 26.10556319012828, 0.01518014455322342, 0.007464882644724227, -0.10080490118327484, 8.067100505788625, -0.03318188510365931, -0.19289347495948178
0.76, -0.03303445578065873, -0.054270371171831165, 26.208516438401848, 0.015079434045592732, 0.007459913409915269, -0.12568383931918378, 8.067330590668883, -0.033118700559102994, -0.19442550166889655
0.77, -0.025220313260379004, -0.05445600653362351, 26.33929031793782, 0.014964307674841883, 0.007460168134240957, -0.15065200397647066, 8.067571984281486, -0.03305756767926215, -0.19626710715238785
0.78, -0.020450636035310044, -0.0516562682883204, 26.501410740040782, 0.014847564343431258, 0.00746958335545627, -0.175527081690739, 8.067822728236575, -0.0329949045925621, -0.19840982825076942
0.79, -0.019108539349100007, -0.042623997022678745, -129.32231741732917, -0.008582137579085512, -0.017254597166812317, -0.12467640338318053, 8.087247868422665, -0.03226458406696835, -0.20080808767665362
0.8, 0.012312958236180836, -0.07510214212506815, -116.2527874312571, -0.008486784860582056, -0.017111713630193908, -0.15005274810018565, 8.087192229106638, -0.032501293256333504, -0.20264771388503539
0.81, 0.004477491173989491, -0.06718978466302741, -116.4149840843268, -0.008448234196924587, -0.016891820191528593, -0.17503084215411782, 8.087139515456311, -0.03272936313902736, -0.2047996389098266
0.820000000000001, -0.03406763953449328, -0.06353555237888904, -116.72536553535905, -0.008448419314053986, -0.016659488174998974, -0.19991147625237457, 8.087079580100202, -0.03294721773516455, -0.20722154399862147
0.830000000000001, -0.01715237805116047, -0.06906132487036407, -116.83229364110727, -0.00838817926089814, -0.016451097422826837, -0.22492367188972084, 8.087015771694563, -0.03315601934304906, -0.20995781996457502
0.840000000000001, -0.0030758960099795973, -0.0777854170331347, -116.9681064787022, -0.00832096993853598, -0.01621783939231348, -0.24979441172184638, 8.086946110770453, -0.033356512435676056, -0.21300393111211777
0.850000000000001, -0.008424351066908812, -0.07164071640393935, -117.1917337263884, -0.008277337311019008, -0.015966567353308075, -0.2748112375313246, 8.086870816223342, -0.033549289472052324, -0.21637445727537039
0.860000000000001, -0.013844291837074732, -0.07066962963353135, -117.43255465178117, -0.008234808649328492, -0.015711965663026736, -0.2996551860849389, 8.086789809647403, -0.03373619059889601, -0.22006133992869306
0.870000000000001, -0.017984027496758554, -0.07744894041121494, -117.68585581912922, -0.008189416924345603, -0.015443816213132457, -0.32466856008971323, 8.086704243141726, -0.03391830231612918, -0.22407913928738638
0.880000000000001, -0.022202336288298555, -0.07577413286107808, -117.96024728175078, -0.00813887852621695, -0.01515883354953097, -0.34947771037611114, 8.086614566316307, -0.03409798002077788, -0.22841503375300504
0.890000000000001, -0.010709846303793069, -0.07202697162974958, -162.47747446311158, -0.03133231184987785, -0.023583322986695097, -0.15694883614450209, 8.068826153041924, -0.038757182269812736, -0.20932304883731043
0.900000000000001, -0.02628753733992124, -0.05648636995903221, -142.99929356022443, -0.031224324487344062, -0.02344871170022027, -0.182087827793075, 8.068411777495426, -0.03905734913634331, -0.21160002748326479
0.910000000000001, -0.025239569067719146, -0.061193808743284554, -143.09393831037326, -0.031137567918990864, -0.023288545713827727, -0.20711472434986902, 8.067993942799971, -0.03935975443356825, -0.21420306840128514
0.920000000000001, -0.034751212057436365, -0.06149322133005337, -143.22279915174377, -0.031053108263754316, -0.023098000914312012, -0.23187434640373966, 8.067572719155493, -0.039666463739155756, -0.21712758165773416
0.930000000000001, -0.03382324231244565, -0.06282412873565403, -143.35771710969712, -0.03096397954180877, -0.022896349957810907, -0.25691734228846386, 8.067148075440146, -0.039980805961948786, -0.22039224738481555
0.940000000000001, -0.02429698698219469, -0.05991914956964206, -143.49899133620187, -0.030866781460887796, -0.022687597970835655, -0.28164333443792455, 8.066719934430186, -0.04030468475399201, -0.22396808323069406
0.950000000000001, -0.03470205843621346, -0.06592533239542404, -143.70532341145054, -0.03078655153222795, -0.022434533603060188, -0.3067109253554889, 8.066287639990335, -0.04064058795678266, -0.22787567914492507
0.960000000000001, -0.034325370152294254, -0.06347173835383871, -143.91607047816396, -0.0306909304152216, -0.022174587096408436, -0.3313634289980534, 8.065851638153388, -0.040986482856198055, -0.2320795210535372
0.970000000000001, -0.021276631861303862, -0.0708258908908146, -144.1300435985511, -0.03058674040890484, -0.02190494151772778, -0.35643766345244565, 8.06541181999111, -0.04134275571630764, -0.2366080801345557
0.980000000000001, -0.022346885777230808, -0.07896466052359058, -144.3911479577109, -0.03046972607733024, -0.021600182627038854, -0.3809879776445206, 8.0649694820326, -0.04170212689953593, -0.24142221733193747
0.990000000000001, -0.028807340246865785, -0.06456377469214336, -13.07109920664926, 0.03773045391267974, -0.035414797449318414, 0.22456593663940305, 8.070168240255544, -0.03559117320796308, -0.22380855099380115
1.0, -0.02714461715402087, -0.07723846142420247, -43.25325971336662, 0.037618622826894293, -0.035492755040708195, 0.20082821098548256, 8.070707537431534, -0.03599964506334829, -0.2212094832676182
1.01, -0.031950800176618846, -0.06961657211069244, -43.339634713402965, 0.037504472700477076, -0.0354914408798967, 0.1759111901051845, 8.071244800382571, -0.03642133335850845, -0.21895016902444545
1.02, -0.03902086326272654, -0.07899284273139984, -43.42831232588341, 0.03738303927277635, -0.035472858430301984, 0.15100460362357415, 8.071780312809002, -0.036851699744787116, -0.2169944276309493
1.03, -0.035473435903980555, -0.07926263327816027, -43.4923060661102, 0.03726486771369463, -0.03542391683141745, 0.12602449845560215, 8.07231365961783, -0.037289665211808105, -0.2153549221850589
1.04, -0.05030952968677284, -0.08339939352880416, -43.56826237730989, 0.037126546618082595, -0.03537610897126449, 0.1011272745812951, 8.072844593471475, -0.037733386801733534, -0.2140270568795157
1.05, -0.0603427609043147, -0.07727393237964081, -43.629913408260215, 0.03699656989906128, -0.035313495199328984, 0.07614291626697005, 8.073372770751519, -0.038181884258910996, -0.21302222783282587
1.06, -0.06812796605408544, -0.07753302238970887, -43.675418741028736, 0.036873375833206, -0.03524055993519286, 0.05125441996851395, 8.073898190826963, -0.03863359920913314, -0.212336437401309
1.07, -0.0699824268885351, -0.0787455429014333, -43.70420168824099, 0.03675577456590678, -0.035145630871929734, 0.02626121001559651, 8.074420277818483, -0.03908761649761591, -0.21197932035857964
1.08, -0.06744830955465321, -0.10165652579008191, -43.710980424022075, 0.03662114128056622, -0.03501131592975555, 0.0013698157308616346, 8.074938699655208, -0.039542358981764086, -0.21194257902230032
1.09, -0.05158871527929125, -0.08041381460494866, 115.81761281614216, 0.019827106189740994, -0.0028749146132817094, 0.05046618368747566, 8.161347219125915, -0.04719699573881552, -0.19631495323394185
1.1, -0.09243939261298671, -0.13169272902149604, -8.686700475580084, 0.019947286522440457, -0.0030679847126355592, 0.02672149021891532, 8.1616331262961, -0.04723355440760536, -0.19588726551513416
1.11, -0.08927610937424992, -0.11690657194468226, -8.736716391780982, 0.019686414956612466, -0.0030239456275784602, 0.001253745818027719, 8.161911771070697, -0.04727287868959432, -0.1958491901558358
1.12, -0.08744097025201995, -0.11674855619826247, -8.729605272504786, 0.019440338181296302, -0.002966672470598849, -0.023786247975389384, 8.162185873718924, -0.04731375222481148, -0.19617413718238702
1.13, -0.07376290478222242, -0.10976642114608381, -8.62746787746988, 0.01920480124368465, -0.002887268805806477, -0.048713032502966123, 8.162456354642167, -0.047354930653570555, -0.19679974336787015
1.14, -0.06398627259599005, -0.09796061708747983, -8.51577315294375, 0.018989710434153973, -0.002800577967463765, -0.07377796976060418, 8.16272316453858, -0.04739766954346539, -0.1977676291855149
1.15, -0.054540861683575526, -0.08107112793118129, -8.353952985871114, 0.0188091257062782, -0.002706138361736433, -0.09870217862597636, 8.162986815050747, -0.04744222804858976, -0.1990714323733828
1.16, -0.04969433765553225, -0.07041752791797962, -8.170962405203575, 0.018657982299156127, -0.0026063447187294206, -0.12376353137606373, 8.163247946791358, -0.04748963968987714, -0.2007244864141986
1.17, -0.05121513869448907, -0.06270092881088339, -7.958905220144004, 0.0185278732869208, -0.0025026163173937498, -0.14867486189965815, 8.163506855400643, -0.04754029581466545, -0.20271812989519178
1.18, -0.0703160702802026, -0.05826760822317051, -7.769425791186043, 0.01840735438542329, -0.0024040791686371203, -0.1737258609113305, 8.163764098817676, -0.04759542104366334, -0.2050626351733859
1.19, -0.07119578337609121, -0.09393711369161956, 36.45078069465104, 0.03731981780473481, 0.012557281071177063, 0.0819219628077521, 8.212656104392108, -0.05709264403910438, -0.2251969555906937
1.2, -0.06921826566191558, -0.05440975786034859, 18.529752982452823, 0.03721684189292745, 0.012432362520358342, 0.05663334185119133, 8.213186171151863, -0.05692136785209966, -0.22443022938817425
1.21, -0.07595411450726866, -0.05192614473259508, 18.45223534099404, 0.03713224117146358, 0.01236811226827334, 0.031685631931357004, 8.21371741997315, -0.05675526812998095, -0.2240203738726044
1.22, -0.07542312833903539, -0.03580253568208912, 18.4168732198981, 0.03706786067211528, 0.012332160853875363, 0.006636346437597915, 8.214249555461551, -0.05659223840123166, -0.22391842443891458
1.23, -0.06689575113554654, -0.03156750291284231, 18.409849403171876, 0.03702344207326571, 0.012328928081889741, -0.01826984312621846, 8.214782610303038, -0.05643300131806263, -0.22414808821554355
1.24, -0.06845326848495874, -0.026593870731054875, 18.409267628633952, 0.03699263084207809, 0.012335631442971324, -0.04332176315358182, 8.215316600514472, -0.056277790371963295, -0.2247213770417948
1.25, -0.0746132103069096, -0.03182085844508374, 18.422987984590737, 0.036964284821441165, 0.01235337552315868, -0.06822117369990728, 8.215851201636154, -0.0561253871840673, -0.2256267728060141
1.26, -0.08510240059157197, -0.026900800532210445, 18.454482398264346, 0.03693775960979592, 0.012383973823121584, -0.0932573318372994, 8.216386365450981, -0.05597543044122753, -0.2268741616593776
1.27, -0.08089764673966005, -0.02127268385185027, 18.535069573503065, 0.03691857604096466, 0.012452833433849966, -0.11815562284765457, 8.216921739664075, -0.05582630197713402, -0.22845282413361565
1.28, -0.0783661530856965, -0.020723014845595356, 18.638407514537647, 0.03690589312531624, 0.012539067494847664, -0.1432030693869014, 8.217457400071362, -0.055677638214039524, -0.2303734882572231
1.29, -0.07525273960206834, -0.033443419406880635, -76.62038005262674, 0.03812558615362693, -0.02382490101047359, -0.09095073753964907, 8.238305545202213, -0.07130168139696734, -0.18777665862951293
1.3, -0.07877220264779483, -0.03011082408394374, -31.961337479011206, 0.03812398661313254, -0.023697700118993248, -0.11587588676482864, 8.238858370352032, -0.07162296344199676, -0.18932352034206343
1.31, -0.07512471035857915, -0.015264500182705434, -31.858026620105235, 0.038116729874565186, -0.02357820452591496, -0.14082685395379474, 8.239410858871825, -0.07194713244728022, -0.19126287016909818
1.32, -0.0667421564471896, -0.012010761675743845, -31.72492940105608, 0.03812884798413604, -0.023456243492953003, -0.16569917620033606, 8.239962839308689, -0.0722720175979204, -0.19351211607391675
1.33, -0.0685757891635586, -0.018810987662574188, -31.601242682838826, 0.0381313328800252, -0.023327780923749344, -0.19066771312072445, 8.240513471379332, -0.07259888011670226, -0.19612209336232952
1.34, -0.06705497131492553, -0.0175136504770575, -31.45295586829843, 0.03813071731849869, -0.02317722327445058, -0.21552653667674304, 8.241062794094908, -0.07292768537213876, -0.19908721521512765
1.35, -0.06500275850225809, -0.018610882409205488, -31.28819695959368, 0.03813109601297266, -0.023010349525109587, -0.24047699722136057, 8.241610491793997, -0.07325900408145467, -0.20241879398515905
1.36, -0.07231696110916072, -0.027507398957482335, -31.118406993777096, 0.0381137033303748, -0.022829409100921204, -0.2653172003335329, 8.242156710127816, -0.07359315822055211, -0.20610776370632908
1.37, -0.07231326323453814, -0.03308260676149975, -30.919338044094676, 0.038087402827344234, -0.0226150450844628, -0.2902596705665501, 8.242701190295909, -0.07393065415253289, -0.21016465655282285
1.38, -0.05108771790929323, -0.02229501698312202, -30.66298024599155, 0.03808002813141994, -0.02236152041121763, -0.31508276262045426, 8.243244862496782, -0.07427137183322335, -0.21457641834612426
1.39, -0.06864376549390465, -0.0216888846732554, 96.70576038947048, 0.027793209263267914, -0.0033859609838328662, 0.13790783781644067, 8.24402065432029, -0.08214180032963193, -0.23274591486188556
1.4, -0.06634809491306208, -0.044338261405565335, -7.052144925369826, 0.027806334961540672, -0.003537183966203888, 0.11396151555000471, 8.24442183755669, -0.08217039804708723, -0.23106359902417548
1.41, -0.07070508852022184, -0.04759233446105355, -7.261869384867553, 0.027731196040663687, -0.003597879956481093, 0.08855646120038839, 8.244820963860814, -0.08220502458539458, -0.22979181483520447
1.42, -0.05948923619775023, -0.06396209796938669, -7.364778678411482, 0.027632130066129756, -0.003613204502570746, 0.06358827346584311, 8.245218690043489, -0.08224468033522864, -0.22891214408755564
1.43, -0.059347257512340774, -0.06086347386481352, -7.449266362802631, 0.027518792342597704, -0.0036284750228886857, 0.03871573506386792, 8.245614964596172, -0.08228698589281881, -0.22834751285813173
1.44, -0.05654244547655028, -0.05221385564306599, -7.505253854401952, 0.027418711336719564, -0.003623733193484986, 0.013711438747510777, 8.246009982368628, -0.08233363662985316, -0.22814164682550062
1.45, -0.06357380979161889, -0.05376375077769568, -7.546454156420325, 0.02732519872106476, -0.0036153837888783687, -0.011147879213092815, 8.24640363944335, -0.08238411535840244, -0.2282821921520028
1.46, -0.055377463121543, -0.05528243754701655, -7.51731149080214, 0.027230029931060704, -0.003569781219795867, -0.03615508996153125, 8.246796000534399, -0.08243836670827623, -0.22878054628365466
1.47, -0.05338062714565187, -0.056030425933580506, -7.463721834461888, 0.02713218256115553, -0.0035147219458425264, -0.06102087085570285, 8.247186827397464, -0.08249562175183879, -0.22962525597641278
1.48, -0.044580809657194895, -0.06405054866156525, -7.359950937766873, 0.027023760821200327, -0.0034312236250671362, -0.08604226835294052, 8.24757614561385, -0.08255576174668654, -0.23082741744460394
1.49, -0.05900499399275563, -0.05534668871224125, -3.5216416417012866, 0.031350356175718394, -0.004395238854202233, -0.17022674353085065, 8.272077784584129, -0.09762279255106346, -0.22583119538029117
1.5, -0.036932575796631555, -0.06666807390322763, -7.949121130271979, 0.03123998683060701, -0.004225489564517221, -0.19517682379104517, 8.272527705234632, -0.09770927120607667, -0.2285661290124372
1.51, -0.046813355483794096, -0.06685388905283299, -7.725176973909509, 0.031117553795017117, -0.004067013532674435, -0.22005139283055045, 8.272977838039447, -0.09779628390604872, -0.23165051105902773
1.52, -0.04260722570029664, -0.06845559114545963, -7.437514315818946, 0.03099366578854554, -0.0038722697929877434, -0.2450760497466911, 8.273428397505459, -0.09788343292905168, -0.2350907813868659
1.53, -0.042043557924986354, -0.05762722851625747, -7.119856966760523, 0.030882738210083523, -0.0036681538013088317, -0.2699593413281291, 8.273878550888115, -0.09797009766628187, -0.23887603286072343
1.54, -0.04030902963149018, -0.06179848978417485, -6.771508902901502, 0.030776996056620518, -0.0034456985526320556, -0.29498058019948126, 8.274328607061776, -0.09805653462499596, -0.24301767440581762
1.55, -0.03600313755897097, -0.06133227791698074, -6.377961951992846, 0.03066966671227325, -0.0032041609929784193, -0.31985428687194367, 8.27477749250725, -0.09814222783468911, -0.24750476765483018
1.56, -0.03270148726171439, -0.06609531204477133, -5.95763901472316, 0.03055555370174184, -0.0029450923518843466, -0.34486985717998003, 8.27522555847118, -0.09822762693286535, -0.252348661442585
1.57, -0.039507055779963614, -0.05864588273422996, -5.5208275971319605, 0.030446293665766632, -0.0026838521520339328, -0.3697453547422263, 8.275671794717432, -0.09831259171319698, -0.25753836629075877
1.58, -0.03897213904281539, -0.059257948258462104, -5.037123250294628, 0.030343695610896664, -0.002396153565941227, -0.3947619200452138, 8.276116979081902, -0.09839753071825988, -0.26308519614416886
1.59, -0.04021215433973122, -0.0629679571224171, 137.51713611382476, 0.022863880005642618, -0.00020777453516953627, -0.05545923225026406, 8.325702094762383, -0.11155067168506655, -0.24469659421148743
1.6, -0.04628933882481868, -0.0590731323334254, -0.6882103623045319, 0.02296579021274802, -0.00024337534861391727, -0.07917539874213256, 8.32603905839531, -0.11156132195008302, -0.2457201250283734
1.61, -0.043687901758483104, -0.06745386474075576, -0.6032582138045748, 0.022847314842631604, -0.0001678545026480542, -0.10450688384315976, 8.326375810558382, -0.11157777965091083, -0.2471825453807498
1.62, -0.05665614309150217, -0.07128669686984185, -0.4657077398951687, 0.022716628688449668, -9.12293156972772e-05, -0.1295258088027215, 8.326712843285197, -0.11159815663254412, -0.24903747202979
1.63, -0.06361852782717699, -0.06129624069531882, -0.25533304789415684, 0.022595729908301106, 8.401387650838204e-06, -0.15454777285747734, 8.32704915983761, -0.11162080468508505, -0.2512337080187315
1.64, -0.05686219174410451, -0.05816824102854809, 0.04064624784239797, 0.022489499773845477, 0.0001454216124105079, -0.17957323521353252, 8.32738470368632, -0.11164625293817437, -0.2537934096448465
1.65, -0.05378351385508587, -0.05011783663659117, 0.3744249743010588, 0.02239944378514683, 0.0003030778319086029, -0.204899695292495, 8.327718476125254, -0.11167527883314847, -0.2567390120216245
1.66, -0.05211580645298516, -0.04453346120035996, 0.7742567876516968, 0.022322450423577864, 0.0004807226583112262, -0.2299065529825474, 8.328051043407687, -0.11170677266306152, -0.2600481363653707
1.67, -0.04785588799265643, -0.04332766664553178, 1.2415765242385766, 0.022254122613416864, 0.0006796920969242848, -0.2549128089880949, 8.328381361048642, -0.11173919891667651, -0.26368868033671733
1.68, -0.04436653830744431, -0.046395302450080896, 1.755427115311468, 0.022182558867583173, 0.0008998158094795921, -0.27992597204182773, 8.32871000289863, -0.11177272398159505, -0.2676823559922281
1.69, -0.05151035160078341, -0.05573671192340229, -16.28057557150589, 0.030002417391438052, -0.00811435699022918, -0.052849474762705684, 8.305978487838315, -0.09284992530717238, -0.24640687077005163
1.7, -0.04224245199487053, -0.031070251677068086, -15.110288928069377, 0.02995043678925442, -0.008016151827285925, -0.07832476037639388, 8.306421230302021, -0.09297351393350547, -0.24754316273444918
1.71, -0.04740422086210109, -0.03457216028190413, -14.997626939169384, 0.029910716749021335, -0.007921993772199617, -0.10334665587322975, 8.3068651382854, -0.09309948809349834, -0.24904011583827057
1.72, -0.04721560014242963, -0.04121780699785704, -14.833877362430792, 0.02986223006772154, -0.007803572401941924, -0.12823231437657215, 8.307309597306572, -0.09322599200071993, -0.2508631991595613
1.73, -0.057098623187862144, -0.041358911647917024, -14.669482469430099, 0.02980342659892518, -0.007673122022447973, -0.15325981080946868, 8.307753822390568, -0.09335390070636002, -0.25305411380326137
1.74, -0.05281780857779226, -0.03928122353077573, -14.427212180506025, 0.02975217037628493, -0.007504933805763767, -0.1781565047615555, 8.308198074822023, -0.09348198603503083, -0.25560089749323506
1.75, -0.05374760555386177, -0.03249810007259087, -14.16068174180376, 0.029709381609432935, -0.007323239915172916, -0.20319635467241196, 8.30864181199324, -0.09361032662538217, -0.2585148305729357
1.76, -0.050205540858906675, -0.03086922188140212, -13.838467564780226, 0.029677503371482453, -0.00711731702060863, -0.22810345720923458, 8.309085566895863, -0.09373831614057583, -0.26178329088160096
1.77, -0.04865484718955784, -0.02426079645435222, -13.483805458184436, 0.029654748864541905, -0.006894086299592831, -0.25315061858661336, 8.309528760200264, -0.09386631648690698, -0.2654176144173303
1.78, -0.052365766288401186, -0.028978210089352356, -13.096120737363242, 0.029631425221418668, -0.006656528840043241, -0.27805967188112674, 8.30997199832275, -0.09399418752527008, -0.2694051415742667
1.79, -0.050442952822351866, -0.03378859596636388, -21.27192399289201, 0.052846609061068986, -0.02102225301276555, -0.07019249683589351, 8.324507779386247, -0.07988562355668179, -0.24220006669482655
1.8, -0.030948734618837966, -0.016097449910068482, -21.666739917421253, 0.052858639953666534, -0.020911573984446367, -0.09509265032109346, 8.325297323921466, -0.08019381869699557, -0.24355350998158964
1.81, -0.04157628766562761, -0.01808544749295085, -21.595855980226286, 0.052870846695449024, -0.020820459533657916, -0.11996343473653165, 8.326086695845653, -0.0805046299403693, -0.24526547293057524
1.82, -0.0356869274917859, -0.014547263872790055, -21.485488757036464, 0.05289364270747223, -0.020686962071020717, -0.1449100051413955, 8.326876267484396, -0.08081835935447391, -0.24735378418502776
1.83, -0.040627078194539826, -0.012589638378279405, -21.364807533874725, 0.052917273753755795, -0.020545434326661, -0.1697798184315928, 8.32766568422435, -0.08113484327083564, -0.24980571780042457
1.84, -0.048480685112393666, -0.015812579122736266, -21.227565157295885, 0.05293767561882543, -0.020381176969763215, -0.19473931130969882, 8.328455428532326, -0.08145431336526515, -0.25262779680888414
1.85, -0.04908537529054162, -0.018376926114689118, -21.055250937009657, 0.05295524361250585, -0.020182913393794494, -0.21961682095756666, 8.329244930206604, -0.08177597772742039, -0.25580984097927995
1.86, -0.047333973528109516, -0.024793859197056074, -20.859583672453848, 0.052963699236364355, -0.01995155023325161, -0.24458985255336688, 8.330034702477882, -0.08209956909345645, -0.2593587399343831
1.87, -0.04370154279788134, -0.022739134123836394, -20.63661132669433, 0.05296895111005489, -0.019691622038521713, -0.2696419245414725, 8.330824020099259, -0.08242432445698994, -0.26327742209973026
1.88, -0.04458890124024116, -0.029340404901521042, -20.392295120736268, 0.05296641927319917, -0.019412093317879388, -0.29456790173089076, 8.331613583624199, -0.08274885764422872, -0.26754855358537477
1.89, -0.04288554967186277, -0.019153981089318383, 104.76361804545117, 0.03637441582644904, 0.012457322839693714, -0.017670393903665427, 8.358802173271634, -0.05695794038651311, -0.2661801516688641
1.9, -0.0254803577339312, -0.042226222210709166, 18.832905131003432, 0.03639281561126957, 0.012427587533395717, -0.04224559149431978, 8.359345514112576, -0.05678528093145468, -0.2667451233909537
1.91, -0.020238480506233496, -0.039389841267092454, 18.858796572866687, 0.0363450434360146, 0.012468771004352067, -0.06730071410751325, 8.359890915467803, -0.05661687986158612, -0.26773819146506495
1.92, -0.021166395056521674, -0.029878518223238254, 18.926761360995833, 0.03631312868579679, 0.012519314500280466, -0.09221531350542184, 8.360438913082275, -0.056448877154029894, -0.2690642769936428
1.93, -0.024696561165947175, -0.02605230945705405, 19.008062798336386, 0.03629559082330789, 0.012588862155142792, -0.11710634255650987, 8.36098856534319, -0.056281862123128114, -0.2707528076342209
1.94, -0.01831528081509419, -0.021129897580907428, 19.1340378877305, 0.03628498827420078, 0.01269262071938765, -0.14206006298319976, 8.361538937436787, -0.056115966869322506, -0.27282587432526884
1.95, -0.014637294989957878, -0.021773380836057964, 19.28197438876778, 0.03628170160436347, 0.012816807688100658, -0.16710282542977511, 8.362089086310757, -0.05595132446568878, -0.27528726866247855
1.96, -0.02130065161099569, -0.020967258724365882, 19.437246953385635, 0.036283008972966074, 0.012946033118103634, -0.19199938878789685, 8.36263893837383, -0.05578790403525354, -0.2781219263219608
1.97, -0.01141352803191889, -0.017314462215524688, 19.648500169993735, 0.036282592274379, 0.013117724482728044, -0.21687424323568655, 8.363187896047924, -0.05562586695655604, -0.2813279695984755
1.98, -0.007833628661643709, -0.00830710150073329, 19.877392751015403, 0.03629959821183388, 0.01330988428805883, -0.24181604662164458, 8.363736453896024, -0.05546613901225452, -0.2849225358804541
1.99, -0.018155082496896728, -0.025221761050348082, -174.91292636874337, -0.0034569724319271147, 0.006976619561763498, 0.12363288466309214, 8.327486269770821, -0.05130981353440258, -0.278526464221772
2.0, -0.006787196734754841, -0.020293298158636987, 116.10899710924726, -0.0034252106412138526, 0.006843453964243844, 0.10167811857926082, 8.32743550891948, -0.05118488067328903, -0.2768014662580319
2.01, -0.003957168971882037, -0.029368213426530548, 116.59843629229024, -0.0034115243022734797, 0.006741566096330093, 0.0728753989096104, 8.327383722871843, -0.0510721671527768, -0.2756396215518933
2.02, -0.00980198177384126, -0.020638243531582556, 116.76687817968453, -0.0033905559404805432, 0.006643017849271014, 0.051045908722887785, 8.327329119203851, -0.050958973565410126, -0.2747314732479319
2.03, -0.006224581657358725, -0.024333030441387474, 117.05638607583921, -0.003648287011486146, 0.006876949860057601, 0.01920151139164366, 8.32725195206385, -0.05084240954694751, -0.2740350806822041
2.04, 0.0010084290640999076, -0.030192324921755914, 117.99472770275759, -0.006326231846168616, 0.008007464476785358, 0.0008710500549995778, 8.32754043658248, -0.0507948611657814, -0.27344940227285575
2.05, -0.0010839059200654128, -0.036234201636171096, 128.3064521731358, -0.008090493115765138, 0.00807504189277189, -0.027653337394070603, 8.327023779396978, -0.05050805404605849, -0.2743319156120662
2.06, -0.0076630058774813554, -0.024803861970397852, 134.98177026877264, -0.00958557224011053, 0.008180222936675802, -0.04476754807708558, 8.32932598857024, -0.050484659400813724, -0.2744643783676138
2.07, -0.011574213200319546, -0.0239867054788407, 139.49205095840844, -0.011239655651242828, 0.008215941613725804, -0.073693850900313, 8.328615442006361, -0.0503461876767396, -0.27602297979159396
2.08, -0.005813457860559054, -0.023184467412996082, 143.82438231513947, -0.013201669525240656, 0.008370080330362824, -0.08617976911791664, 8.331602063277481, -0.05026634631910953, -0.2768001537441779
2.09, -0.006136419413893874, -0.025899959716263774, -67.9979037343036, 0.027430567648692353, -0.0039850371489825245, 0.20490614732319895, 8.363913323748635, 0.007439092531223983, -0.27631756112145467
2.1, -0.014299571802808223, -0.01805978141420959, -8.244614206391718, 0.02736094732643705, -0.0039228698018191665, 0.18391239253025357, 8.365755938282229, 0.007400992039219306, -0.273202248039205
2.11, -0.025215672796128078, -0.017870040900326754, -8.172425414525065, 0.02592687480014734, -0.003897724628917563, 0.1617968921847376, 8.366910103540341, 0.007357830039033709, -0.27060193481869593
2.12, -0.021521997454025405, -0.01741622644865957, -8.540218456562528, 0.02613292386842418, -0.003984337801619876, 0.13691049547138603, 8.367304167143276, 0.007338516295839716, -0.2685526448383215
2.13, -0.021430927296230813, -0.022342573694619443, -8.67106204291677, 0.02617131623967561, -0.004033384863436773, 0.11188342614592921, 8.367638787014627, 0.007307713482448588, -0.266992120930461
2.14, -0.02065142171093822, -0.015949007754438648, -8.75985613406471, 0.026181727066092123, -0.004065014760103512, 0.0870018960247599, 8.367996915932649, 0.007266190628587087, -0.265743823498055
2.15, -0.01932258564430379, -0.020588457791211275, -8.824094193441864, 0.026178175858063694, -0.004080941923994357, 0.06197439191294072, 8.368373680881929, 0.007216404955316791, -0.26483279105500934
2.16, -0.010721955617901947, -0.0217044132378881, -8.83836901091799, 0.02616277122864057, -0.004076302096863713, 0.03708535849001225, 8.368762950909225, 0.0071611825768405695, -0.2642648831315499
2.17, -0.013219875912248883, -0.01326511274142171, -8.86537553976537, 0.026148533024756428, -0.004074498175225399, 0.012054269291122136, 8.369159366758062, 0.0071010464530341785, -0.2640671809880715
2.18, -0.013070685542501943, -0.024745405466659744, -8.857382031041556, 0.026125490068180622, -0.0040566743096252895, -0.012834350773801587, 8.369558722234324, 0.007036923716143363, -0.26423892809782396
2.19, -0.018045773499577596, -0.019105027231817534, 70.4688553853327, 0.02821607739172121, 0.002324836500855615, -0.0981822769176944, 8.406790832489726, -0.03670954745344254, -0.19789578269452143
2.2, -0.021936036717187534, -0.02344519478605448, 4.648730631320449, 0.02820006131998453, 0.002374319873361278, -0.1228593615565799, 8.407202514252624, -0.03669883682922845, -0.19974671534406946
2.21, -0.01910483016119221, -0.01980221912667606, 4.812704932714477, 0.028150556396564785, 0.0024852796814242794, -0.14790237699101816, 8.407602975790166, -0.03669777017370668, -0.20205104888417766
2.22, -0.016890348987107787, -0.014908685166473047, 5.044081769295953, 0.02810830592157799, 0.0026167939071149965, -0.1729555349862075, 8.407995207473236, -0.03670436233527021, -0.20472131074813063
2.23, -0.016154650672286306, -0.01423765727204526, 5.313850907998655, 0.02806952629200765, 0.0027730685107854557, -0.198014533456086, 8.408376573685862, -0.036720795473264525, -0.20778013507146006
2.24, -0.01100408747283527, -0.024958391787015595, 5.648509652276557, 0.028013524511784068, 0.0029620258516736097, -0.22308044635132054, 8.408747377424643, -0.03674733523066935, -0.21122071282765878
2.25, -0.009872978764227689, -0.025725789974607404, 6.030404483485561, 0.027943921462774083, 0.003171589425115466, -0.24798399207782454, 8.409109398870775, -0.036782586045452266, -0.21502127548137373
2.26, -0.013413570718702332, -0.028026148425163943, 6.459767576525172, 0.027866684628572093, 0.003404818618561268, -0.27303255183944347, 8.409464814706757, -0.03682576344563334, -0.21919498385243816
2.27, -0.015287722181600715, -0.024919793370970854, 6.953237112478221, 0.027791435721309675, 0.003666087893499165, -0.2979558316943133, 8.409817723489738, -0.036872759040658176, -0.22372264850914644
2.28, -0.008850783007407397, -0.024657379545944706, 7.524771736284818, 0.02771589961860406, 0.003964391904322583, -0.3230201046387256, 8.41017266130323, -0.036920245088947236, -0.22861425779413153
2.29, -0.014538114256761358, -0.022298408855500194, -68.42835772684106, 0.029686158077079233, -0.032128430468583435, -0.12036937048796278, 8.3880105100869, 0.008923966200925379, -0.15847220888897118
2.29999999999999, -0.010840659765302303, -0.021325385101670098, -47.24299630917084, 0.029676424881052686, -0.031959514128404885, -0.14562597853782672, 8.388459319094427, 0.00838320747194347, -0.16067802945879975
2.30999999999999, -0.01872484895342278, -0.018825045810240297, -47.13380412003176, 0.029645272163693944, -0.031782765715338876, -0.17058920253398338, 8.388908839497079, 0.007838993871304954, -0.16329154250376643
2.31999999999999, -0.013395990878337505, -0.019383473229435188, -46.98276724774633, 0.029627089995556754, -0.03157856674200016, -0.1954735658065392, 8.389361446301836, 0.00729646074192328, -0.1662379333409694
2.32999999999999, -0.020979361040096244, -0.01842732414494822, -46.83832515118243, 0.02959724618820775, -0.031362582185062965, -0.2204429600144348, 8.389815651625504, 0.006753993752059337, -0.1695721943368591
2.33999999999999, -0.016545772041823708, -0.012974742915551864, -46.64998245204323, 0.029582726120327783, -0.03111570606879887, -0.24532431839356209, 8.390271835408466, 0.006212591880612464, -0.17328321762042403
2.34999999999999, -0.02207701868047824, -0.016084197364166417, -46.45554633198458, 0.02956041523863202, -0.03085567701471359, -0.2703002949957915, 8.390729613771457, 0.005671881294963223, -0.17738130220603043
2.35999999999999, -0.03076997742064315, -0.023881881254238978, -46.241435435313704, 0.02952545579672684, -0.030562511109986847, -0.29516858618942743, 8.391188641832642, 0.005131929506139206, -0.18185339474192191
2.36999999999999, -0.03289932861958561, -0.02214845992243848, -45.99191472880777, 0.029492255153783793, -0.03023676612056321, -0.320160398365798, 8.391648739622612, 0.004592059940544482, -0.18671193092802335
2.37999999999999, -0.035542600390858915, -0.017214614124677945, -45.71717267478366, 0.02946367518081766, -0.029890660140058627, -0.3450330823712774, 8.392109798627478, 0.0040517778564956855, -0.19194235382056893
2.38999999999999, -0.021755709955568, -0.018916826041952172, 15.26368205803002, 0.04664950324209821, -0.019552253700859265, -0.09221237307639124, 8.341310937150606, 0.04020276898332442, -0.16826443106490302
2.39999999999999, -0.03726168170620495, -0.020552150040385624, -22.774972789535553, 0.04665640600686511, -0.019472490850104954, -0.11703783872601901, 8.342047517941678, 0.0398628059936175, -0.17002037718784355
2.40999999999999, -0.03705889931051774, -0.02377440470162714, -22.652626440212156, 0.046653275111092775, -0.01932786708894076, -0.14257741579962102, 8.342787226570152, 0.03951717687538301, -0.1721733390238242
2.41999999999999, -0.040108085864518715, -0.02572653309071589, -22.506360292271353, 0.04663906411051959, -0.019149687876889282, -0.16748315252296417, 8.343529919551107, 0.03916436471320469, -0.17478409345998536
2.42999999999999, -0.03721317245648538, -0.025459193485444346, -22.31758831165136, 0.04662759794824145, -0.018950588687327408, -0.19246207909066032, 8.344274837345951, 0.038809100798031904, -0.17773068954704507
2.43999999999999, -0.041242004879099674, -0.02616548460173625, -22.121931903147505, 0.046611001581353596, -0.01873229290034729, -0.2173580206987705, 8.345022003795883, 0.0384492507046716, -0.18106325405825707
2.44999999999999, -0.035413660615649885, -0.024924033459137147, -21.885071414712254, 0.04660122950802939, -0.018476058343755083, -0.24234038168972455, 8.345770476401764, 0.03808467065068695, -0.18478857449801678
2.45999999999999, -0.028285216934395032, -0.020310476761337803, -21.614709012006998, 0.04659800274339876, -0.01819217527146616, -0.267234058902673, 8.3465210672085, 0.03771605772467025, -0.18889261921784953
2.46999999999999, -0.023312287065084515, -0.016720232446859856, -21.31799128949259, 0.04660388696905304, -0.01788723207721014, -0.2922286604295946, 8.347272876939401, 0.03734334562745398, -0.19338330959680092
2.47999999999999, -0.02733077084429326, -0.016542808388401945, -21.00390559427108, 0.04660956389019495, -0.01756409896904473, -0.31729701336508326, 8.348026844341785, 0.036967046694867264, -0.1982610894518541
2.48999999999999, -0.034402273039674816, -0.022241785316838982, -176.17824213457894, 0.0033831756080346595, -0.00839057260418638, 0.16147536512524702, 8.358806860795207, 0.02472801605242158, -0.23825573662503835
2.49999999999999, -0.021982884825659594, -0.024819163489774625, -67.85088322554354, 0.0034302041011149143, -0.008524604320561829, 0.1352653868294303, 8.358860396347165, 0.024620730199899167, -0.23626604068115925
2.50999999999999, -0.025259190144150387, -0.031481588651997516, -68.12663032815182, 0.0034105965800777407, -0.008601413992024637, 0.10810534905056582, 8.358912663075447, 0.024510374611652234, -0.2345659800842937
2.51999999999999, -0.02506034840086891, -0.027825150833978515, -68.38477893165907, 0.0033940334088617408, -0.008660617645924322, 0.0848278655381682, 8.358964742949139, 0.02439502175182125, -0.23321308473087302
2.52999999999999, -0.021905068743262177, -0.02587373168389432, -68.59048379899765, 0.0033836639893279397, -0.00871632097427254, 0.05989460058554015, 8.359014982202597, 0.02427739893103607, -0.23210858750695698
2.53999999999999, -0.029833102831215576, -0.025129029135703265, -68.85883364916378, 0.0033589093264485954, -0.008723016723415859, 0.03497280423905746, 8.359068091140806, 0.024145594721863846, -0.23154821004864504
2.54999999999999, -0.028168588312232748, -0.02557513550277361, -68.93970942372081, 0.003344532642401797, -0.008698802268349346, 0.010044399504655044, 8.359122935308626, 0.02400784423572252, -0.23137345693254416
2.55999999999999, -0.0194052567435904, -0.02342415404377879, -68.91299794573543, 0.0033387752898418692, -0.00864728591265903, -0.014877443591740347, 8.359179590217465, 0.023864762305438242, -0.23158414299545874
2.56999999999999, -0.013826486130463493, -0.03186961580950385, -68.85553567835198, 0.0033255237958356504, -0.008562241450220833, -0.03980225596386736, 8.359237456655277, 0.02371696160745203, -0.23218125215138213
2.57999999999999, -0.015191247576849093, -0.032946045707286535, -68.79634493876256, 0.003299832093124872, -0.008444371580457228, -0.0647116142430077, 8.359295615561098, 0.023564980128865005, -0.2331638859710215
2.58999999999999, -0.023228299341941393, -0.027660792128063258, 145.51421245463078, 0.001074980391446532, -0.009475474184078701, -0.0828207318832474, 8.408193186868063, -0.04043784369692781, -0.20642184933392282
2.59999999999999, -0.015974599787196297, -0.02669205583407586, -83.31332792330286, 0.0010997038373809819, -0.00941793877427874, -0.10554623030426202, 8.408215511311775, -0.04060708951354624, -0.20787147117629395
2.60999999999999, -0.014125033934787201, -0.03315995038931316, -83.33711699600414, 0.001088647770584986, -0.009225915598281755, -0.13103653433491827, 8.408236679764588, -0.04078846637649511, -0.20988020105872676
2.61999999999999, -0.008796193269193087, -0.03467940072261261, -83.23869372717901, 0.0010820612764033018, -0.00898420662819475, -0.15595705732480933, 8.40825636175308, -0.04097549448214003, -0.21233981856022172
2.62999999999999, -0.016237268949305727, -0.031778351177704015, -83.20232148507104, 0.001058678594619798, -0.008726914587540168, -0.18088746389820137, 8.408276365511185, -0.04116250414226279, -0.2151376066538792
2.63999999999999, -0.024392195516915696, -0.028911297392319672, -83.1611086966857, 0.0010351080665689882, -0.008448815855757198, -0.20581200697894403, 8.408296987548278, -0.041351102032139375, -0.21832400917500447
2.64999999999999, -0.026659967184990616, -0.02907193051566542, -83.04519785850252, 0.0010181958980650927, -0.008144152589238675, -0.23075036497965415, 8.408319643405463, -0.04154032114218818, -0.22190088404885616
2.65999999999999, -0.021513589076047758, -0.03129549415856902, -82.83964195474529, 0.0010110026218177986, -0.007809235843556028, -0.25566855199211314, 8.408343648705902, -0.04172956519415169, -0.22586700455687894
2.66999999999999, -0.016477091575382404, -0.026383428877313358, -82.58833105698041, 0.001003113473126152, -0.007449291411136932, -0.28059757483561243, 8.408369857444452, -0.041918260310688606, -0.23022454265451525
2.67999999999999, -0.013968825619015583, -0.023588004754130972, -82.31812157545724, 0.0009942273211818275, -0.007072350835367025, -0.30551519504279684, 8.408396752521535, -0.042106442825630315, -0.2349720928221004
2.68999999999999, -0.018194092064947064, -0.029504217527320676, 49.557717578105304, 0.02835702265861885, 0.011787548644038096, 0.013984159585144595, 8.460714051671262, -0.04306451675715839, -0.21675312943399722
2.69999999999999, -0.0052912540722509635, -0.02374966906261235, 22.559539584466254, 0.02834521936767122, 0.01177754254306674, -0.011178012115202366, 8.461176018795886, -0.04287891303031362, -0.21692320217864688
2.70999999999999, -0.0040119611943335055, -0.02212899670041897, 22.557821186418224, 0.0283363502497021, 0.011808884072575852, -0.03609229855890969, 8.461640288634609, -0.04270003706029331, -0.21751767302987068
2.71999999999999, -0.000530031095545286, -0.021890923461116128, 22.623418316184512, 0.028329987641630253, 0.01186183648030569, -0.060989377143661164, 8.462105355050246, -0.042524297768097324, -0.21845485385149924
2.72999999999999, 0.005251029143494997, -0.016447988194524463, 22.724675410022975, 0.028327653186018632, 0.01194890711866357, -0.08590738374097295, 8.462570392786482, -0.042353858076301876, -0.21978991843983817
2.73999999999999, -0.0015072135906865518, -0.017165024214926487, 22.846582613985262, 0.028337483164948267, 0.012052490929041114, -0.11080684680433206, 8.463035454599861, -0.042188602992587615, -0.2215207752550199
2.74999999999999, 0.005011380406444639, -0.01314230960232784, 23.048056711145367, 0.028344066003447393, 0.012204347103016724, -0.13574432514604473, 8.463500385753587, -0.0420282251946822, -0.2236474803639445
2.75999999999999, 0.002905143188503479, -0.006459794224735265, 23.282609686080843, 0.028367742706213027, 0.012381583840742151, -0.1606638963136423, 8.463966488491067, -0.04187193543938054, -0.22616514026253826
2.76999999999998, 0.003788413742277837, -0.007486545184182965, 23.57396363324707, 0.02839473162606141, 0.01259683280768232, -0.18561281870637114, 8.464434020063576, -0.04171902102645842, -0.22907315412423132
2.77999999999998, 0.006207721187417381, -0.006933483051009882, 23.921516762404632, 0.028421965794021654, 0.012842496155401228, -0.2105297421739208, 8.464904155356185, -0.04156788047676644, -0.2323676963586887
2.78999999999998, 0.0011047357872855691, -0.015042692430339273, 151.37280075497026, -0.04633692889923546, 0.04964889154728073, 0.10572810798531004, 8.447286160521157, -0.07699541848052913, -0.2788778768535274
2.79999999999998, 0.007279363882663717, -0.006289237531281447, 133.02597302879863, -0.04637262987534584, 0.049551572285933494, 0.08057417082572677, 8.446508358841434, -0.07614776844849341, -0.2775921781374176
2.80999999999998, 0.00621493813116592, -0.006416971503197157, 133.09524174664702, -0.046408014630400396, 0.04949288371225696, 0.05562073707454131, 8.445729565060411, -0.07530401127437335, -0.27668256204696334
2.81999999999998, 0.01581164927564539, -0.012103712991880096, 133.16195777057266, -0.04644831555557997, 0.04944962134542001, 0.03071248113220269, 8.444949591283644, -0.07446481699011562, -0.2761624941988844
2.82999999999998, 0.013733778587853167, -0.012845515855220164, 133.19971765920704, -0.04647173077725044, 0.04943951575268727, 0.0057750481472093294, 8.444169222193064, -0.07362989026208158, -0.2760368642446234
2.83999999999998, 0.01738981812876835, -0.006049036475396231, 133.22575746923644, -0.046505767764434894, 0.04945922276005984, -0.01912242342589796, 8.443388367091385, -0.07279872088620505, -0.2763019588592645
2.84999999999998, 0.023462171541132122, -0.011926705780107317, 133.23830724460686, -0.0465412180347221, 0.04950484414721014, -0.044067848121857205, 8.442607259521777, -0.07197139842262679, -0.27696309578565764
2.85999999999998, 0.027510447119938542, -0.008253387055067455, 133.23118527033594, -0.04657464594958095, 0.04958130265137189, -0.06896580035203595, 8.441825412857208, -0.07114780166450686, -0.2780145943440852
2.86999999999998, 0.025611723401244006, -0.0010923918013236327, 133.20168121403765, -0.04661065506143192, 0.049700458156809964, -0.093909097569892, 8.441042525667827, -0.07032800583125019, -0.2794618249250413
2.87999999999998, 0.021732067438991233, 0.0007153526239652851, 133.152528747975, -0.04665262626824093, 0.04985971078144965, -0.11879804485253787, 8.440257952463872, -0.06951182389211509, -0.2812975424415376
2.88999999999998, 0.018045181413606372, -0.007138439661868715, 132.1505261901886, -0.04838635617433453, 0.042340091234675255, 0.04945854034901054, 8.402017188824104, -0.04628912887119377, -0.25335042091119114
2.89999999999998, 0.013560847703780445, 0.00271169015295919, 138.7990463149378, -0.04842773476024248, 0.04232633130747145, 0.024661593379387316, 8.401196906168334, -0.045563710331375656, -0.2529208019339342
2.90999999999998, 0.011863270673199266, 0.0025079718126546644, 138.83905049824105, -0.04847978174713933, 0.042346178150540884, -0.0002977832731466394, 8.400373062971994, -0.044844758135205234, -0.2528940296935189
2.91999999999998, 0.010630216225669014, 0.008418430119238452, 138.85600004557566, -0.04853990517876027, 0.042400374322415044, -0.025181835866030847, 8.399546323299578, -0.044131341409739074, -0.2532552407543842
2.92999999999998, 0.015914487613837732, 0.009690834038681087, 138.86303202135596, -0.04861102831008824, 0.04248194195975538, -0.050147796511307845, 8.398717309290738, -0.04342359884375646, -0.25401308186456767
2.93999999999998, 0.01878350879966773, 0.010511362271635957, 138.84653539671, -0.048684638834369964, 0.04259788023283155, -0.07501783903211162, 8.397886627503034, -0.04272067651002955, -0.2551578678948224
2.94999999999998, 0.02268130594230112, 0.013279159212075608, 138.81392677218804, -0.04876115205371029, 0.04274347033328078, -0.09997534003039539, 8.397054733437024, -0.04202251565712677, -0.25670003571226363
2.95999999999998, 0.023238572784415202, 0.01580128752023715, 138.7569940607612, -0.04884200484195373, 0.042927236956164405, -0.12483377357594923, 8.396222058190292, -0.04132804341416397, -0.2586284331940077
2.96999999999998, 0.023930291529970265, 0.0066056149597651164, 138.68339830513142, -0.04891473746522637, 0.04313194782761501, -0.1498028994727824, 8.395388999399865, -0.04063729820880359, -0.26095547081759346
